{
"type": "FeatureCollection",
"crs": { "type": "name", "properties": { "name": "urn:ogc:def:crs:OGC:1.3:CRS84" } },
"features": [
{ "type": "Feature", "properties": { "FACILITYID": "10000356", "NAME": "HOLMES CORRECTIONAL INSTITUTION", "ADDRESS": "3142 THOMAS DR", "CITY": "BONIFAY", "STATE": "FL", "ZIP": "32425" }, "geometry": { "type": "Polygon", "coordinates": [ [ [ -85.667753140533449, 30.752109395385109 ], [ -85.667661836924154, 30.758739541581477 ], [ -85.672567055965985, 30.75878983666631 ], [ -85.672658023667267, 30.752159677296444 ], [ -85.667753140533449, 30.752109395385109 ] ] ] } },
{ "type": "Feature", "properties": { "FACILITYID": "10006328", "NAME": "EVERGLADES RE-ENTRY CENTER", "ADDRESS": "1601 S.W. 187TH AVENUE", "CITY": "MIAMI", "STATE": "FL", "ZIP": "33194" }, "geometry": { "type": "Polygon", "coordinates": [ [ [ -80.492737407824762, 25.747873148990376 ], [ -80.49272352787365, 25.751141149631685 ], [ -80.49623413405638, 25.751153336901687 ], [ -80.496247917961227, 25.747885334491329 ], [ -80.492737407824762, 25.747873148990376 ] ] ] } },
{ "type": "Feature", "properties": { "FACILITYID": "10000409", "NAME": "MAYO CORRECTIONAL INSTITUTION ANNEX", "ADDRESS": "8784 US HWY 27 W", "CITY": "MAYO", "STATE": "FL", "ZIP": "32066" }, "geometry": { "type": "Polygon", "coordinates": [ [ [ -83.300904821594898, 30.136264040887482 ], [ -83.301010334090051, 30.140809776530805 ], [ -83.309377645174479, 30.140662776725669 ], [ -83.309271749827374, 30.136117067803177 ], [ -83.300904821594898, 30.136264040887482 ] ] ] } },
{ "type": "Feature", "properties": { "FACILITYID": "10000525", "NAME": "FORT MYERS WORK CAMP", "ADDRESS": "2575 ORTIZ AVE", "CITY": "FORT MYERS", "STATE": "FL", "ZIP": "33994" }, "geometry": { "type": "Polygon", "coordinates": [ [ [ -81.808738190689567, 26.630329568667523 ], [ -81.808755141650167, 26.632737139346521 ], [ -81.812067795655096, 26.632718261674817 ], [ -81.812050775282074, 26.630310692966859 ], [ -81.808738190689567, 26.630329568667523 ] ] ] } },
{ "type": "Feature", "properties": { "FACILITYID": "10000387", "NAME": "CALHOUN WORK CAMP", "ADDRESS": "19564 SE INSTITUTION DR", "CITY": "BLOUNTSTOWN", "STATE": "FL", "ZIP": "32424" }, "geometry": { "type": "Polygon", "coordinates": [ [ [ -85.062123635746673, 30.404177279724568 ], [ -85.062058716741461, 30.40746315279981 ], [ -85.065772627175789, 30.407518231139864 ], [ -85.065837421958165, 30.404232350865811 ], [ -85.062123635746673, 30.404177279724568 ] ] ] } },
{ "type": "Feature", "properties": { "FACILITYID": "10000360", "NAME": "WALTON CORRECTIONAL INSTITUTION", "ADDRESS": "691 INSTITUTION RD", "CITY": "DEFUNIAK SPRINGS", "STATE": "FL", "ZIP": "32433" }, "geometry": { "type": "Polygon", "coordinates": [ [ [ -86.100781506935078, 30.775216624745813 ], [ -86.10071737329632, 30.782110782457305 ], [ -86.105605350525934, 30.782144592388395 ], [ -86.105669135685076, 30.775250425472777 ], [ -86.100781506935078, 30.775216624745813 ] ] ] } },
{ "type": "Feature", "properties": { "FACILITYID": "10000370", "NAME": "QUINCY ANNEX", "ADDRESS": "2225 PAT THOMAS PKWY", "CITY": "QUINCY", "STATE": "FL", "ZIP": "32351" }, "geometry": { "type": "Polygon", "coordinates": [ [ [ -84.587340342962804, 30.551403819423577 ], [ -84.587268512721693, 30.554306296521979 ], [ -84.592422796572322, 30.554401742975358 ], [ -84.592494473725324, 30.551499254889155 ], [ -84.587340342962804, 30.551403819423577 ] ] ] } },
{ "type": "Feature", "properties": { "FACILITYID": "10005258", "NAME": "SUGAR PINE CONSERVATION CAMP #9", "ADDRESS": "15905 SUGAR PINE CAMP ROAD", "CITY": "BELLA VISTA", "STATE": "CA", "ZIP": "96008" }, "geometry": { "type": "Polygon", "coordinates": [ [ [ -122.090132688932343, 40.743769288030165 ], [ -122.090076070696028, 40.747923202773777 ], [ -122.095118090527393, 40.747962845533834 ], [ -122.095174395138514, 40.743808925016687 ], [ -122.090132688932343, 40.743769288030165 ] ] ] } },
{ "type": "Feature", "properties": { "FACILITYID": "10006331", "NAME": "CROSS CITY EAST UNIT", "ADDRESS": "568 NE 255TH ST", "CITY": "CROSS CITY", "STATE": "FL", "ZIP": "32628" }, "geometry": { "type": "Polygon", "coordinates": [ [ [ -83.08479170818778, 29.63540124902007 ], [ -83.084867436638717, 29.639076246233188 ], [ -83.088559744174574, 29.639018125231221 ], [ -83.088483881845733, 29.635343136647858 ], [ -83.08479170818778, 29.63540124902007 ] ] ] } },
{ "type": "Feature", "properties": { "FACILITYID": "10005319", "NAME": "OWENS VALLEY CONSERVATION CAMP #26", "ADDRESS": "2781 SOUTH ROUND VALLEY ROAD", "CITY": "BISHOP", "STATE": "CA", "ZIP": "93514" }, "geometry": { "type": "Polygon", "coordinates": [ [ [ -118.548678413395336, 37.387427381744118 ], [ -118.548760301647505, 37.391407212509158 ], [ -118.554336694017763, 37.391334028544854 ], [ -118.554254511211496, 37.387354208249718 ], [ -118.548678413395336, 37.387427381744118 ] ] ] } },
{ "type": "Feature", "properties": { "FACILITYID": "10005272", "NAME": "PARLIN FORK CONSERVATION CAMP #6", "ADDRESS": "23000 STATE HIGHWAY 20", "CITY": "FORT BRAGG", "STATE": "CA", "ZIP": "95437" }, "geometry": { "type": "Polygon", "coordinates": [ [ [ -123.652394318693652, 39.367322938607721 ], [ -123.652450563307795, 39.373366601229954 ], [ -123.659686284768242, 39.373325805758142 ], [ -123.659629416507101, 39.367282151853559 ], [ -123.652394318693652, 39.367322938607721 ] ] ] } },
{ "type": "Feature", "properties": { "FACILITYID": "10005267", "NAME": "SALT CREEK CONSERVATION CAMP #7", "ADDRESS": "10655 ROUND VALLEY ROAD", "CITY": "PASKENTA", "STATE": "CA", "ZIP": "96074" }, "geometry": { "type": "Polygon", "coordinates": [ [ [ -122.626979213666573, 39.810101999323862 ], [ -122.626957317066299, 39.814152896078376 ], [ -122.631893848804694, 39.814168662009216 ], [ -122.631915455659922, 39.810117763003184 ], [ -122.626979213666573, 39.810101999323862 ] ] ] } },
{ "type": "Feature", "properties": { "FACILITYID": "10005362", "NAME": "VENTURA CONSERVATION CAMP #46", "ADDRESS": "2800 WRIGHT ROAD", "CITY": "CAMARILLO", "STATE": "CA", "ZIP": "93010" }, "geometry": { "type": "Polygon", "coordinates": [ [ [ -119.104758271787617, 34.244583001416885 ], [ -119.104838541250473, 34.24780596021521 ], [ -119.108800670197226, 34.247737842367677 ], [ -119.1087202499086, 34.244514891758001 ], [ -119.104758271787617, 34.244583001416885 ] ] ] } },
{ "type": "Feature", "properties": { "FACILITYID": "10005275", "NAME": "VALLEY VIEW CONSERVATION CAMP #34", "ADDRESS": "3339 COUNTY ROAD 307", "CITY": "ELK CREEK", "STATE": "CA", "ZIP": "95939" }, "geometry": { "type": "Polygon", "coordinates": [ [ [ -122.719598403454114, 39.650892024977345 ], [ -122.71958534720298, 39.654123643767697 ], [ -122.724019900059844, 39.654134265110578 ], [ -122.724032749842351, 39.650902645108879 ], [ -122.719598403454114, 39.650892024977345 ] ] ] } },
{ "type": "Feature", "properties": { "FACILITYID": "10000811", "NAME": "MIRAMONTE CONSERVATION CAMP #5", "ADDRESS": "49039 ORCHARD DRIVE", "CITY": "MIRAMONTE", "STATE": "CA", "ZIP": "93641" }, "geometry": { "type": "Polygon", "coordinates": [ [ [ -119.083824077586144, 36.670864803228937 ], [ -119.083918948177029, 36.67438142854806 ], [ -119.087801381842738, 36.674313397920301 ], [ -119.087706334816417, 36.670796781263576 ], [ -119.083824077586144, 36.670864803228937 ] ] ] } },
{ "type": "Feature", "properties": { "FACILITYID": "10000840", "NAME": "PRADO CONSERVATION CAMP #28", "ADDRESS": "14467 CENTRAL AVENUE", "CITY": "CHINO", "STATE": "CA", "ZIP": "91710" }, "geometry": { "type": "Polygon", "coordinates": [ [ [ -117.683712222938368, 33.989263404243545 ], [ -117.68374289769784, 33.993093099044081 ], [ -117.68996215371871, 33.993058377333398 ], [ -117.689931199998455, 33.98922868751044 ], [ -117.683712222938368, 33.989263404243545 ] ] ] } },
{ "type": "Feature", "properties": { "FACILITYID": "10002322", "NAME": "CALIFORNIA STATE PRISON, SACRAMENTO (SAC)", "ADDRESS": "100 PRISON ROAD", "CITY": "REPRESA", "STATE": "CA", "ZIP": "95671" }, "geometry": { "type": "Polygon", "coordinates": [ [ [ -121.149629330854125, 38.68939923324664 ], [ -121.149386632105731, 38.698816117663213 ], [ -121.160020331116428, 38.698983973863015 ], [ -121.160261637231287, 38.689567033276681 ], [ -121.149629330854125, 38.68939923324664 ] ] ] } },
{ "type": "Feature", "properties": { "FACILITYID": "10000492", "NAME": "HARDEE WORK CAMP", "ADDRESS": "6899 STATE RD 62", "CITY": "BOWLING GREEN", "STATE": "FL", "ZIP": "33834" }, "geometry": { "type": "Polygon", "coordinates": [ [ [ -82.00501965343274, 27.592081969763687 ], [ -82.005049312252709, 27.595333848951029 ], [ -82.00873734084945, 27.595307098200859 ], [ -82.008707573241352, 27.592055222695024 ], [ -82.00501965343274, 27.592081969763687 ] ] ] } },
{ "type": "Feature", "properties": { "FACILITYID": "10002176", "NAME": "AVON PARK WORK CAMP", "ADDRESS": "8100 HIGHWAY 64 EAST", "CITY": "AVON PARK", "STATE": "FL", "ZIP": "33825" }, "geometry": { "type": "Polygon", "coordinates": [ [ [ -81.355972905910818, 27.657384717953477 ], [ -81.355986115524288, 27.661462752192719 ], [ -81.361698050367707, 27.661447964585779 ], [ -81.361684628812071, 27.657369932894525 ], [ -81.355972905910818, 27.657384717953477 ] ] ] } },
{ "type": "Feature", "properties": { "FACILITYID": "10006208", "NAME": "NEW RIVER CORRECTIONAL WORK CAMP", "ADDRESS": "PO BOX 900", "CITY": "RAIFORD", "STATE": "FL", "ZIP": "32083" }, "geometry": { "type": "Polygon", "coordinates": [ [ [ -82.186069438686019, 30.066983618854746 ], [ -82.186110718606031, 30.07044481581784 ], [ -82.189918068696002, 30.070410405656951 ], [ -82.189876656345817, 30.066949213463268 ], [ -82.186069438686019, 30.066983618854746 ] ] ] } },
{ "type": "Feature", "properties": { "FACILITYID": "10000619", "NAME": "CENTRAL ARIZONA FLORENCE CORRECTIONAL COMPLEX", "ADDRESS": "1155 N PINAL PKWY", "CITY": "FLORENCE", "STATE": "AZ", "ZIP": "85132" }, "geometry": { "type": "Polygon", "coordinates": [ [ [ -111.372139004831965, 33.042071255047773 ], [ -111.372156676963954, 33.046273598767456 ], [ -111.3789169604226, 33.046253248762575 ], [ -111.378898967292145, 33.04205090828971 ], [ -111.372139004831965, 33.042071255047773 ] ] ] } },
{ "type": "Feature", "properties": { "FACILITYID": "10006507", "NAME": "FCI TALLAHASSEE DETENTION CENTER", "ADDRESS": "525 CAPITAL CIR NE", "CITY": "TALLAHASSEE", "STATE": "FL", "ZIP": "32301" }, "geometry": { "type": "Polygon", "coordinates": [ [ [ -84.223097814678482, 30.443356505064816 ], [ -84.222996744656854, 30.446919419306663 ], [ -84.226817534151394, 30.447000733074638 ], [ -84.226918465548934, 30.443437807317885 ], [ -84.223097814678482, 30.443356505064816 ] ] ] } },
{ "type": "Feature", "properties": { "FACILITYID": "10000879", "NAME": "PUERTA LA CRUZ CONSERVATION CAMP #14", "ADDRESS": "32363 STATE HIGHWAY 79", "CITY": "WARNER SPRINGS", "STATE": "CA", "ZIP": "92086" }, "geometry": { "type": "Polygon", "coordinates": [ [ [ -116.680819711395912, 33.322537364780985 ], [ -116.680805836290162, 33.326343285956838 ], [ -116.68547146288067, 33.326355186559546 ], [ -116.685485135183697, 33.322549263671483 ], [ -116.680819711395912, 33.322537364780985 ] ] ] } },
{ "type": "Feature", "properties": { "FACILITYID": "10002347", "NAME": "CALIPATRIA STATE PRISON (CAL)", "ADDRESS": "7018 BLAIR ROAD", "CITY": "CALIPATRIA", "STATE": "CA", "ZIP": "92233" }, "geometry": { "type": "Polygon", "coordinates": [ [ [ -115.476202226513337, 33.161768982522737 ], [ -115.476076330158648, 33.169044678464402 ], [ -115.490896311791957, 33.1692252097546 ], [ -115.49102098495726, 33.161949464040738 ], [ -115.476202226513337, 33.161768982522737 ] ] ] } },
{ "type": "Feature", "properties": { "FACILITYID": "10000386", "NAME": "HAMILTON WORK CAMP", "ADDRESS": "10650 SW 46TH ST", "CITY": "JASPER", "STATE": "FL", "ZIP": "32052" }, "geometry": { "type": "Polygon", "coordinates": [ [ [ -82.957806477950086, 30.504769818826585 ], [ -82.957876765491733, 30.508276999719364 ], [ -82.961935244842479, 30.5082159515004 ], [ -82.961864811829514, 30.504708779107244 ], [ -82.957806477950086, 30.504769818826585 ] ] ] } },
{ "type": "Feature", "properties": { "FACILITYID": "10000502", "NAME": "DESOTO CORRECTIONAL INSTITUTION", "ADDRESS": "13617 SE HWY 70", "CITY": "ARCADIA", "STATE": "FL", "ZIP": "34266" }, "geometry": { "type": "Polygon", "coordinates": [ [ [ -81.66656171680205, 27.20512530762716 ], [ -81.666589411481169, 27.20978026370075 ], [ -81.673816676604034, 27.209745701059006 ], [ -81.673788681710008, 27.205090751859757 ], [ -81.66656171680205, 27.20512530762716 ] ] ] } },
{ "type": "Feature", "properties": { "FACILITYID": "10000533", "NAME": "HOLLYWOOD WORK RELEASE CENTER", "ADDRESS": "8501 W CYPRESS DR", "CITY": "PEMBROKE PINES", "STATE": "FL", "ZIP": "33025" }, "geometry": { "type": "Polygon", "coordinates": [ [ [ -80.254929468975874, 26.00236086173615 ], [ -80.254909419073044, 26.005538518638502 ], [ -80.258233999269805, 26.005555611061109 ], [ -80.258253959730382, 26.002377951763254 ], [ -80.254929468975874, 26.00236086173615 ] ] ] } },
{ "type": "Feature", "properties": { "FACILITYID": "10000519", "NAME": "ATLANTIC COMMUNITY RELEASE CENTER", "ADDRESS": "263 FAIRGROUNDS RD", "CITY": "WEST PALM BEACH", "STATE": "FL", "ZIP": "33411" }, "geometry": { "type": "Polygon", "coordinates": [ [ [ -80.191593709972253, 26.681671527076595 ], [ -80.191577575848669, 26.683958900599002 ], [ -80.194138217753547, 26.683973453243745 ], [ -80.194154300786522, 26.681686078279668 ], [ -80.191593709972253, 26.681671527076595 ] ] ] } },
{ "type": "Feature", "properties": { "FACILITYID": "10004589", "NAME": "CITRUS COUNTY DETENTION FACILITY", "ADDRESS": "2604 WEST WOODLAND RIDGE DRIVE", "CITY": "LECANTO", "STATE": "FL", "ZIP": "34461" }, "geometry": { "type": "Polygon", "coordinates": [ [ [ -82.474458345116702, 28.843074719787875 ], [ -82.474519701958542, 28.84742488730463 ], [ -82.478955396653262, 28.847376311969366 ], [ -82.478893855399647, 28.843026153137405 ], [ -82.474458345116702, 28.843074719787875 ] ] ] } },
{ "type": "Feature", "properties": { "FACILITYID": "10002510", "NAME": "LONGVIEW WORK RELEASE", "ADDRESS": "1821 1ST AVE", "CITY": "LONGVIEW", "STATE": "WA", "ZIP": "98632" }, "geometry": { "type": "Polygon", "coordinates": [ [ [ -122.916989347353081, 46.140031039675684 ], [ -122.916986098668346, 46.142192697516563 ], [ -122.920432926067036, 46.142195148636247 ], [ -122.920436039863191, 46.140033490611515 ], [ -122.916989347353081, 46.140031039675684 ] ] ] } },
{ "type": "Feature", "properties": { "FACILITYID": "10003950", "NAME": "PANAMA CITY COMMUNITY RELEASE CENTER", "ADDRESS": "3609 HIGHWAY 390", "CITY": "PANAMA CITY", "STATE": "FL", "ZIP": "32405" }, "geometry": { "type": "Polygon", "coordinates": [ [ [ -85.670455161763385, 30.21249784052079 ], [ -85.670418493761389, 30.215224477336232 ], [ -85.673527208443062, 30.215255976008191 ], [ -85.673563790772391, 30.212529335763421 ], [ -85.670455161763385, 30.21249784052079 ] ] ] } },
{ "type": "Feature", "properties": { "FACILITYID": "10004573", "NAME": "TAYLOR CORRECTIONAL INSTITUTION ANNEX", "ADDRESS": "8501 HAMPTON SPRINGS ROAD", "CITY": "PERRY", "STATE": "FL", "ZIP": "32348" }, "geometry": { "type": "Polygon", "coordinates": [ [ [ -83.711319703895924, 30.033236413271556 ], [ -83.71151822529643, 30.040522739306105 ], [ -83.71873738358228, 30.040373622999514 ], [ -83.718538335222888, 30.033087340499225 ], [ -83.711319703895924, 30.033236413271556 ] ] ] } },
{ "type": "Feature", "properties": { "FACILITYID": "10000417", "NAME": "UNION CORRECTIONAL INSTITUTION", "ADDRESS": "25636 NE SR-16", "CITY": "RAIFORD", "STATE": "FL", "ZIP": "32083" }, "geometry": { "type": "Polygon", "coordinates": [ [ [ -82.18869892184415, 30.063741960204428 ], [ -82.188771585628984, 30.069821512510973 ], [ -82.196878872530036, 30.069747944419213 ], [ -82.196805713473822, 30.063668410023109 ], [ -82.18869892184415, 30.063741960204428 ] ] ] } },
{ "type": "Feature", "properties": { "FACILITYID": "10000445", "NAME": "TOMOKA WORK CAMP", "ADDRESS": "3950 TIGER BAY RD", "CITY": "DAYTONA BEACH", "STATE": "FL", "ZIP": "32124" }, "geometry": { "type": "Polygon", "coordinates": [ [ [ -81.15795887987025, 29.154495734948554 ], [ -81.157963532336339, 29.157536232023627 ], [ -81.161422418003283, 29.157532109144256 ], [ -81.161417663664452, 29.154491612580891 ], [ -81.15795887987025, 29.154495734948554 ] ] ] } },
{ "type": "Feature", "properties": { "FACILITYID": "10000507", "NAME": "ARCADIA ROAD PRISON", "ADDRESS": "2961 NW COUNTY RD 661", "CITY": "ARCADIA", "STATE": "FL", "ZIP": "34266" }, "geometry": { "type": "Polygon", "coordinates": [ [ [ -81.891398703831555, 27.232705479375397 ], [ -81.891417324601719, 27.23504313562864 ], [ -81.894352993180064, 27.235024419436513 ], [ -81.894334311106761, 27.232686765051536 ], [ -81.891398703831555, 27.232705479375397 ] ] ] } },
{ "type": "Feature", "properties": { "FACILITYID": "10000405", "NAME": "SUWANNEE WORK CAMP", "ADDRESS": "5964 US HWY 90", "CITY": "LIVE OAK", "STATE": "FL", "ZIP": "32060" }, "geometry": { "type": "Polygon", "coordinates": [ [ [ -82.871220158257117, 30.23638948198111 ], [ -82.871289941184401, 30.240072146226566 ], [ -82.875029506141061, 30.240018666372386 ], [ -82.874959583959338, 30.236336009986896 ], [ -82.871220158257117, 30.23638948198111 ] ] ] } },
{ "type": "Feature", "properties": { "FACILITYID": "10000474", "NAME": "POLK WORK CAMP", "ADDRESS": "10800 EVANS RD", "CITY": "POLK CITY", "STATE": "FL", "ZIP": "33868" }, "geometry": { "type": "Polygon", "coordinates": [ [ [ -81.786453893134862, 28.194135989736207 ], [ -81.786476648546866, 28.197244291725713 ], [ -81.789972173157224, 28.197224160002641 ], [ -81.789949316633539, 28.194115860623477 ], [ -81.786453893134862, 28.194135989736207 ] ] ] } },
{ "type": "Feature", "properties": { "FACILITYID": "10006329", "NAME": "TOMOKA CRC 298", "ADDRESS": "1341 INDIAN LAKE ROAD", "CITY": "DAYTONA BEACH", "STATE": "FL", "ZIP": "32124" }, "geometry": { "type": "Polygon", "coordinates": [ [ [ -81.141105856823273, 29.139781174086444 ], [ -81.141110076321567, 29.142869930922494 ], [ -81.145040819205676, 29.142865734478285 ], [ -81.145036482170596, 29.139776978171508 ], [ -81.141105856823273, 29.139781174086444 ] ] ] } },
{ "type": "Feature", "properties": { "FACILITYID": "10002152", "NAME": "CENTURY WORK CAMP", "ADDRESS": "400 TEDDER RD", "CITY": "CENTURY", "STATE": "FL", "ZIP": "32535" }, "geometry": { "type": "Polygon", "coordinates": [ [ [ -87.297656982825757, 30.956533078810928 ], [ -87.297667109569204, 30.95979863321196 ], [ -87.301339958771948, 30.959790121562438 ], [ -87.301329707081422, 30.956524568255318 ], [ -87.297656982825757, 30.956533078810928 ] ] ] } },
{ "type": "Feature", "properties": { "FACILITYID": "10004586", "NAME": "RE-ENTRY CENTER OF OCALA", "ADDRESS": "2006 NORTHEAST 8TH RD", "CITY": "OCALA", "STATE": "FL", "ZIP": "34470" }, "geometry": { "type": "Polygon", "coordinates": [ [ [ -82.127730576285785, 29.206245742124487 ], [ -82.127755533751994, 29.208525189712017 ], [ -82.130438023007244, 29.208502554873714 ], [ -82.130413006207775, 29.206223109389992 ], [ -82.127730576285785, 29.206245742124487 ] ] ] } },
{ "type": "Feature", "properties": { "FACILITYID": "10004598", "NAME": "BRIDGES OF ORLANDO", "ADDRESS": "2011 MERCY DRIVE", "CITY": "ORLANDO", "STATE": "FL", "ZIP": "32808" }, "geometry": { "type": "Polygon", "coordinates": [ [ [ -81.426027150203311, 28.56781327426885 ], [ -81.426042488526434, 28.571621085405674 ], [ -81.431399148333924, 28.571604162680174 ], [ -81.43138361717557, 28.567796354208262 ], [ -81.426027150203311, 28.56781327426885 ] ] ] } },
{ "type": "Feature", "properties": { "FACILITYID": "10004627", "NAME": "FORT PIERCE COMMUNITY RELEASE CENTER", "ADDRESS": "1203 BELL AVENUE", "CITY": "FORT PIERCE", "STATE": "FL", "ZIP": "34982" }, "geometry": { "type": "Polygon", "coordinates": [ [ [ -80.336190167342451, 27.394799804815893 ], [ -80.33617672205915, 27.397050816762683 ], [ -80.338631448368503, 27.39706247646517 ], [ -80.338644843941864, 27.394811463402164 ], [ -80.336190167342451, 27.394799804815893 ] ] ] } },
{ "type": "Feature", "properties": { "FACILITYID": "10000335", "NAME": "JACKSON WORK CAMP", "ADDRESS": "5607 10TH ST", "CITY": "MALONE", "STATE": "FL", "ZIP": "32445" }, "geometry": { "type": "Polygon", "coordinates": [ [ [ -85.167416560616843, 30.970274342504784 ], [ -85.167354276525813, 30.97353371587462 ], [ -85.171176867929162, 30.973587897000463 ], [ -85.171239022282748, 30.970328516682311 ], [ -85.167416560616843, 30.970274342504784 ] ] ] } },
{ "type": "Feature", "properties": { "FACILITYID": "10000426", "NAME": "GAINESVILLE WORK CAMP", "ADDRESS": "700 NE 55TH BLVD", "CITY": "GAINESVILLE", "STATE": "FL", "ZIP": "32641" }, "geometry": { "type": "Polygon", "coordinates": [ [ [ -82.257906292154104, 29.654997662661202 ], [ -82.257946678996575, 29.658244300948095 ], [ -82.261484238599863, 29.658210681008736 ], [ -82.261443738256048, 29.654964047130111 ], [ -82.257906292154104, 29.654997662661202 ] ] ] } },
{ "type": "Feature", "properties": { "FACILITYID": "10000429", "NAME": "LANCASTER WORK CAMP", "ADDRESS": "3449 SW STATE RD 26", "CITY": "TRENTON", "STATE": "FL", "ZIP": "32693" }, "geometry": { "type": "Polygon", "coordinates": [ [ [ -82.86745059588587, 29.606328176374255 ], [ -82.867505608527154, 29.609312418556318 ], [ -82.870929088189911, 29.609264179986859 ], [ -82.870873974843661, 29.606279943624642 ], [ -82.86745059588587, 29.606328176374255 ] ] ] } },
{ "type": "Feature", "properties": { "FACILITYID": "10001448", "NAME": "BRIDGES OF SANTA FE", "ADDRESS": "2901 NE 39TH AVE", "CITY": "GAINESVILLE", "STATE": "FL", "ZIP": "32602" }, "geometry": { "type": "Polygon", "coordinates": [ [ [ -82.284459792446711, 29.680957568487845 ], [ -82.284499880939961, 29.684110255724441 ], [ -82.288041978259812, 29.684075864474615 ], [ -82.288001779294163, 29.680923181614549 ], [ -82.284459792446711, 29.680957568487845 ] ] ] } },
{ "type": "Feature", "properties": { "FACILITYID": "10000509", "NAME": "MARTIN WORK CAMP", "ADDRESS": "100 SW ALLAPATTAH ROAD", "CITY": "INDIANTOWN", "STATE": "FL", "ZIP": "34956" }, "geometry": { "type": "Polygon", "coordinates": [ [ [ -80.48094176940576, 27.202950180020505 ], [ -80.480925554829525, 27.206450523079592 ], [ -80.485039208915651, 27.206465697629771 ], [ -80.485055295005608, 27.202965352300932 ], [ -80.48094176940576, 27.202950180020505 ] ] ] } },
{ "type": "Feature", "properties": { "FACILITYID": "10004649", "NAME": "MIAMI NORTH COMMUNITY RELEASE CENTER", "ADDRESS": "7090 NORTHWEST 41ST ST", "CITY": "MIAMI", "STATE": "FL", "ZIP": "33166" }, "geometry": { "type": "Polygon", "coordinates": [ [ [ -80.310997372184715, 25.809715139889875 ], [ -80.310981269643207, 25.812498677213373 ], [ -80.313735931034103, 25.812511707701489 ], [ -80.313751969210827, 25.809728168769698 ], [ -80.310997372184715, 25.809715139889875 ] ] ] } },
{ "type": "Feature", "properties": { "FACILITYID": "10000413", "NAME": "GULF FORESTRY CAMP", "ADDRESS": "3222 DOC WHITFIELD RD", "CITY": "WHITE CITY", "STATE": "FL", "ZIP": "32465" }, "geometry": { "type": "Polygon", "coordinates": [ [ [ -85.135873987879989, 29.907049170211582 ], [ -85.135818302035076, 29.910038593307902 ], [ -85.139236327377063, 29.910086877118903 ], [ -85.139291911264309, 29.907097448223467 ], [ -85.135873987879989, 29.907049170211582 ] ] ] } },
{ "type": "Feature", "properties": { "FACILITYID": "10006168", "NAME": "SAGO PALM RE-ENTRY CENTER", "ADDRESS": "500 BAY BOTTOM ROAD", "CITY": "PAHOKEE", "STATE": "FL", "ZIP": "33476" }, "geometry": { "type": "Polygon", "coordinates": [ [ [ -80.633716674007772, 26.838091258678606 ], [ -80.633704424393386, 26.8418982086461 ], [ -80.637500426984786, 26.841907987443328 ], [ -80.637512549660499, 26.838101035870167 ], [ -80.633716674007772, 26.838091258678606 ] ] ] } },
{ "type": "Feature", "properties": { "FACILITYID": "10004556", "NAME": "SANTA ROSA WORK CAMP", "ADDRESS": "5850 EAST MILTON ROAD", "CITY": "MILTON", "STATE": "FL", "ZIP": "32583" }, "geometry": { "type": "Polygon", "coordinates": [ [ [ -86.970975358621402, 30.648014929577222 ], [ -86.970974284731213, 30.651610162364353 ], [ -86.974806018880358, 30.651610961491699 ], [ -86.974806951004524, 30.648015728590821 ], [ -86.970975358621402, 30.648014929577222 ] ] ] } },
{ "type": "Feature", "properties": { "FACILITYID": "10004585", "NAME": "LOWELL WORK CAMP", "ADDRESS": "11120 NW GAINESVILLE RD", "CITY": "OCALA", "STATE": "FL", "ZIP": "34482" }, "geometry": { "type": "Polygon", "coordinates": [ [ [ -82.194620636341995, 29.306758580459874 ], [ -82.194672043076309, 29.311172280878605 ], [ -82.199495867783938, 29.31112903151482 ], [ -82.199444253601527, 29.306715338862329 ], [ -82.194620636341995, 29.306758580459874 ] ] ] } },
{ "type": "Feature", "properties": { "FACILITYID": "10000433", "NAME": "CROSS CITY WORK CAMP", "ADDRESS": "568 NE 255TH ST", "CITY": "CROSS CITY", "STATE": "FL", "ZIP": "32628" }, "geometry": { "type": "Polygon", "coordinates": [ [ [ -83.097212297252881, 29.629564443408185 ], [ -83.097274583144966, 29.632569939307299 ], [ -83.100678134114901, 29.632516055763389 ], [ -83.100615747323573, 29.629510566408271 ], [ -83.097212297252881, 29.629564443408185 ] ] ] } },
{ "type": "Feature", "properties": { "FACILITYID": "10000441", "NAME": "MARION WORK CAMP", "ADDRESS": "PO BOX 158", "CITY": "LOWELL", "STATE": "FL", "ZIP": "32663" }, "geometry": { "type": "Polygon", "coordinates": [ [ [ -82.180203057847336, 29.302999922654006 ], [ -82.180237532783678, 29.305996625216299 ], [ -82.183612738863673, 29.305966750439108 ], [ -82.183578165393016, 29.302970051519576 ], [ -82.180203057847336, 29.302999922654006 ] ] ] } },
{ "type": "Feature", "properties": { "FACILITYID": "10004580", "NAME": "FLORIDA STATE PRISON", "ADDRESS": "7819 N.W. 228TH STREET", "CITY": "RAIFORD", "STATE": "FL", "ZIP": "32026" }, "geometry": { "type": "Polygon", "coordinates": [ [ [ -82.181768415091497, 30.05681936903105 ], [ -82.181834945413598, 30.062420039368394 ], [ -82.18886776747037, 30.062356630645837 ], [ -82.188800841468549, 30.056755974531821 ], [ -82.181768415091497, 30.05681936903105 ] ] ] } },
{ "type": "Feature", "properties": { "FACILITYID": "10000438", "NAME": "LOWELL ANNEX", "ADDRESS": "11120 NW GAINESVILLE RD", "CITY": "OCALA", "STATE": "FL", "ZIP": "34482" }, "geometry": { "type": "Polygon", "coordinates": [ [ [ -82.197608934865542, 29.311143395930522 ], [ -82.197664163588087, 29.315872522900037 ], [ -82.20484145449889, 29.315807942288476 ], [ -82.204785894999489, 29.311078827743085 ], [ -82.197608934865542, 29.311143395930522 ] ] ] } },
{ "type": "Feature", "properties": { "FACILITYID": "10000393", "NAME": "COLUMBIA WORK CAMP", "ADDRESS": "216 SE CORRECTIONS WAY", "CITY": "LAKE CITY", "STATE": "FL", "ZIP": "32025" }, "geometry": { "type": "Polygon", "coordinates": [ [ [ -82.502897411745622, 30.188933334602051 ], [ -82.502947499864078, 30.192231194064938 ], [ -82.506694135743729, 30.192188195319158 ], [ -82.506643922877672, 30.188890341520931 ], [ -82.502897411745622, 30.188933334602051 ] ] ] } },
{ "type": "Feature", "properties": { "FACILITYID": "10004447", "NAME": "FMC DEVENS CAMP", "ADDRESS": "42 PATTON ROAD", "CITY": "DEVENS", "STATE": "MA", "ZIP": "01434" }, "geometry": { "type": "Polygon", "coordinates": [ [ [ -71.617872193700677, 42.526753832560935 ], [ -71.618008593889684, 42.530018026254581 ], [ -71.623019254752478, 42.529903368364423 ], [ -71.622882594233502, 42.526639187695729 ], [ -71.617872193700677, 42.526753832560935 ] ] ] } },
{ "type": "Feature", "properties": { "FACILITYID": "10001404", "NAME": "MASAC AT PLYMOUTH", "ADDRESS": "1 BUMP POND RD", "CITY": "PLYMOUTH", "STATE": "MA", "ZIP": "02360" }, "geometry": { "type": "Polygon", "coordinates": [ [ [ -70.657812071417823, 41.847409520271434 ], [ -70.657921317384975, 41.85163946260321 ], [ -70.663234089767002, 41.851562630430138 ], [ -70.663124494116317, 41.847332699435249 ], [ -70.657812071417823, 41.847409520271434 ] ] ] } },
{ "type": "Feature", "properties": { "FACILITYID": "10000378", "NAME": "JEFFERSON CORRECTIONAL INSTITUTION", "ADDRESS": "1050 BIG JOE RD", "CITY": "MONTICELLO", "STATE": "FL", "ZIP": "32344" }, "geometry": { "type": "Polygon", "coordinates": [ [ [ -83.797553619841125, 30.507752803044781 ], [ -83.797672227430212, 30.511892291532778 ], [ -83.805596467017551, 30.511721819920602 ], [ -83.805477524552643, 30.507582359443923 ], [ -83.797553619841125, 30.507752803044781 ] ] ] } },
{ "type": "Feature", "properties": { "FACILITYID": "10002098", "NAME": "MASSACHUSETTS TREATMENT CENTER", "ADDRESS": "30 ADMINISTRATION RD", "CITY": "BRIDGEWATER", "STATE": "MA", "ZIP": "02324" }, "geometry": { "type": "Polygon", "coordinates": [ [ [ -70.954886159977136, 41.943572088251564 ], [ -70.95504818838856, 41.94887364295947 ], [ -70.95982448017844, 41.948792183021915 ], [ -70.959662056539457, 41.943490643372904 ], [ -70.954886159977136, 41.943572088251564 ] ] ] } },
{ "type": "Feature", "properties": { "FACILITYID": "10004446", "NAME": "FMC DEVENS", "ADDRESS": "42 PATTON ROAD", "CITY": "DEVENS", "STATE": "MA", "ZIP": "01434" }, "geometry": { "type": "Polygon", "coordinates": [ [ [ -71.615131291036562, 42.523861941507796 ], [ -71.615271976032957, 42.527232542024755 ], [ -71.627208914662532, 42.526959318023927 ], [ -71.627067589331645, 42.523588749556659 ], [ -71.615131291036562, 42.523861941507796 ] ] ] } },
{ "type": "Feature", "properties": { "FACILITYID": "10006307", "NAME": "CAI - OCEAN VIEW", "ADDRESS": "551 SOUTH 35TH STREET", "CITY": "SAN DIEGO", "STATE": "CA", "ZIP": "92113" }, "geometry": { "type": "Polygon", "coordinates": [ [ [ -117.116298309798253, 32.698909730092389 ], [ -117.116301796262064, 32.701597941809879 ], [ -117.119752265030641, 32.701594694954096 ], [ -117.119748675130197, 32.698906483569822 ], [ -117.116298309798253, 32.698909730092389 ] ] ] } },
{ "type": "Feature", "properties": { "FACILITYID": "10001401", "NAME": "LEMUEL SHATTUCK HOSPITAL CORRECTIONAL UNIT", "ADDRESS": "180 MORTON ST", "CITY": "JAMAICA PLAIN", "STATE": "MA", "ZIP": "02130" }, "geometry": { "type": "Polygon", "coordinates": [ [ [ -71.101303074202008, 42.299126479015882 ], [ -71.101386125772677, 42.301623152673749 ], [ -71.104616912611192, 42.301563879214079 ], [ -71.104533733582059, 42.299067210710184 ], [ -71.101303074202008, 42.299126479015882 ] ] ] } },
{ "type": "Feature", "properties": { "FACILITYID": "10001408", "NAME": "MCI - CEDAR JUNCTION", "ADDRESS": "2405 MAIN ST", "CITY": "SOUTH WALPOLE", "STATE": "MA", "ZIP": "02071" }, "geometry": { "type": "Polygon", "coordinates": [ [ [ -71.285632488513386, 42.103239575008487 ], [ -71.285856229380244, 42.109464844698714 ], [ -71.294235540462509, 42.109297533130139 ], [ -71.294010981174708, 42.103072299736546 ], [ -71.285632488513386, 42.103239575008487 ] ] ] } },
{ "type": "Feature", "properties": { "FACILITYID": "10004444", "NAME": "MCI - FRAMINGHAM", "ADDRESS": "99 LORING DRIVE", "CITY": "FRAMINGHAM", "STATE": "MA", "ZIP": "01701" }, "geometry": { "type": "Polygon", "coordinates": [ [ [ -71.404488661383084, 42.264561651608474 ], [ -71.404707569246895, 42.270318338411251 ], [ -71.410421356201013, 42.270198324443051 ], [ -71.41020192942014, 42.264441661703096 ], [ -71.404488661383084, 42.264561651608474 ] ] ] } },
{ "type": "Feature", "properties": { "FACILITYID": "10002101", "NAME": "MCI - NORFOLK", "ADDRESS": "2 CLARK ST", "CITY": "NORFOLK", "STATE": "MA", "ZIP": "02056" }, "geometry": { "type": "Polygon", "coordinates": [ [ [ -71.299910791962176, 42.116210494241329 ], [ -71.300128208938702, 42.12221950382839 ], [ -71.308692953801838, 42.122047408303764 ], [ -71.308474729002469, 42.116038434752674 ], [ -71.299910791962176, 42.116210494241329 ] ] ] } },
{ "type": "Feature", "properties": { "FACILITYID": "10001393", "NAME": "MCI - SHIRLEY", "ADDRESS": "1 HARVARD RD", "CITY": "SHIRLEY", "STATE": "MA", "ZIP": "01464" }, "geometry": { "type": "Polygon", "coordinates": [ [ [ -71.638192435954224, 42.525780569810287 ], [ -71.638367644437935, 42.529941191332 ], [ -71.650344703119671, 42.529664625853435 ], [ -71.650168701529608, 42.525504044376426 ], [ -71.638192435954224, 42.525780569810287 ] ] ] } },
{ "type": "Feature", "properties": { "FACILITYID": "10004449", "NAME": "NORTH CENTRAL CORRECTIONAL INSTITUTION", "ADDRESS": "500 COLONY ROAD", "CITY": "GARDNER", "STATE": "MA", "ZIP": "01440" }, "geometry": { "type": "Polygon", "coordinates": [ [ [ -71.937762835614905, 42.577304040748245 ], [ -71.938011580128261, 42.582597907124331 ], [ -71.94565475402392, 42.582401499177443 ], [ -71.945405364685882, 42.577107668979316 ], [ -71.937762835614905, 42.577304040748245 ] ] ] } },
{ "type": "Feature", "properties": { "FACILITYID": "10001392", "NAME": "NORTHEASTERN CORRECTIONAL INSTITUTION", "ADDRESS": "1 BARRETTS MILL RD", "CITY": "WEST CONCORD", "STATE": "MA", "ZIP": "01742" }, "geometry": { "type": "Polygon", "coordinates": [ [ [ -71.394645375483478, 42.469899633961944 ], [ -71.394830132279196, 42.47474324040008 ], [ -71.401465833506663, 42.474604320242825 ], [ -71.401280565976506, 42.469760737225045 ], [ -71.394645375483478, 42.469899633961944 ] ] ] } },
{ "type": "Feature", "properties": { "FACILITYID": "10004451", "NAME": "OLD COLONY CORRECTIONAL CENTER", "ADDRESS": "1 ADMINISTRATION ROAD", "CITY": "BRIDGEWATER", "STATE": "MA", "ZIP": "02324" }, "geometry": { "type": "Polygon", "coordinates": [ [ [ -70.952093900957138, 41.946978643002673 ], [ -70.952233746184476, 41.951560450239441 ], [ -70.959270473457153, 41.951440540627523 ], [ -70.959130124949453, 41.946858752548174 ], [ -70.952093900957138, 41.946978643002673 ] ] ] } },
{ "type": "Feature", "properties": { "FACILITYID": "10000282", "NAME": "PONDVILLE CORRECTIONAL CENTER", "ADDRESS": "1 INDUSTRIES DR", "CITY": "NORFOLK", "STATE": "MA", "ZIP": "02056" }, "geometry": { "type": "Polygon", "coordinates": [ [ [ -71.290527150264026, 42.107045340061575 ], [ -71.290637046238757, 42.110096335323526 ], [ -71.295820770169087, 42.109992686500149 ], [ -71.29571062603118, 42.106941702258894 ], [ -71.290527150264026, 42.107045340061575 ] ] ] } },
{ "type": "Feature", "properties": { "FACILITYID": "10004443", "NAME": "SOUTH MIDDLESEX CORRECTIONAL CENTER", "ADDRESS": "135 WESTERN AVENUE", "CITY": "FRAMINGHAM", "STATE": "MA", "ZIP": "01701" }, "geometry": { "type": "Polygon", "coordinates": [ [ [ -71.404008880018836, 42.264039837887267 ], [ -71.404106833777561, 42.266616528735007 ], [ -71.407921789755321, 42.266536450944308 ], [ -71.407823680924608, 42.263959767283509 ], [ -71.404008880018836, 42.264039837887267 ] ] ] } },
{ "type": "Feature", "properties": { "FACILITYID": "10001396", "NAME": "SOUZA-BARANOWSKI CORRECTIONAL CENTER", "ADDRESS": "1 HARVARD RD", "CITY": "SHIRLEY", "STATE": "MA", "ZIP": "01464" }, "geometry": { "type": "Polygon", "coordinates": [ [ [ -71.64482511086733, 42.520977938368006 ], [ -71.645028626104505, 42.52579934712476 ], [ -71.65111143217996, 42.525658691529074 ], [ -71.650907450251296, 42.520837306372847 ], [ -71.64482511086733, 42.520977938368006 ] ] ] } },
{ "type": "Feature", "properties": { "FACILITYID": "10000461", "NAME": "ORLANDO COMMUNITY RELEASE CENTER", "ADDRESS": "7300 LAUREL HILL DRIVE", "CITY": "ORLANDO", "STATE": "FL", "ZIP": "32818" }, "geometry": { "type": "Polygon", "coordinates": [ [ [ -81.479266476449851, 28.567717216310633 ], [ -81.479281092151211, 28.570942615359257 ], [ -81.482225679052718, 28.570932183927347 ], [ -81.482210973564477, 28.567706786270197 ], [ -81.479266476449851, 28.567717216310633 ] ] ] } },
{ "type": "Feature", "properties": { "FACILITYID": "10002506", "NAME": "WASHINGTON STATE PENITENTIARY", "ADDRESS": "1313 N 13TH AVE", "CITY": "WALLA WALLA", "STATE": "WA", "ZIP": "99362" }, "geometry": { "type": "Polygon", "coordinates": [ [ [ -118.356841233282481, 46.07607741445738 ], [ -118.357022875716879, 46.083485964349954 ], [ -118.370960786161561, 46.083319609882444 ], [ -118.370777279504154, 46.075911102746467 ], [ -118.356841233282481, 46.07607741445738 ] ] ] } },
{ "type": "Feature", "properties": { "FACILITYID": "10000874", "NAME": "WESTERN REGION DETENTION FACILITY", "ADDRESS": "220 WEST C STREET", "CITY": "SAN DIEGO", "STATE": "CA", "ZIP": "92101" }, "geometry": { "type": "Polygon", "coordinates": [ [ [ -117.16368021196584, 32.714986508880202 ], [ -117.163687520466141, 32.718987801320182 ], [ -117.166546216496158, 32.71898403702901 ], [ -117.166538780359076, 32.714982745163866 ], [ -117.16368021196584, 32.714986508880202 ] ] ] } },
{ "type": "Feature", "properties": { "FACILITYID": "10004592", "NAME": "USP COLEMAN I", "ADDRESS": "846 NORTHEAST 54TH TERRACE", "CITY": "SUMTERVILLE", "STATE": "FL", "ZIP": "33521" }, "geometry": { "type": "Polygon", "coordinates": [ [ [ -82.000732976832467, 28.770222832794005 ], [ -82.000801397766409, 28.777392158851743 ], [ -82.008179342866939, 28.777337292055968 ], [ -82.008110417738806, 28.770167982189982 ], [ -82.000732976832467, 28.770222832794005 ] ] ] } },
{ "type": "Feature", "properties": { "FACILITYID": "10004593", "NAME": "FCI COLEMAN LOW", "ADDRESS": "846 NORTHEAST 54TH TERRACE", "CITY": "SUMTERVILLE", "STATE": "FL", "ZIP": "33521" }, "geometry": { "type": "Polygon", "coordinates": [ [ [ -82.007610210289556, 28.767045841068896 ], [ -82.007676070171811, 28.773900660490817 ], [ -82.01537714699559, 28.773842993899056 ], [ -82.015310783994863, 28.76698819074991 ], [ -82.007610210289556, 28.767045841068896 ] ] ] } },
{ "type": "Feature", "properties": { "FACILITYID": "10006179", "NAME": "FCI MENDOTA", "ADDRESS": "33500 WEST CALIFORNIA AVENUE", "CITY": "MENDOTA", "STATE": "CA", "ZIP": "93640" }, "geometry": { "type": "Polygon", "coordinates": [ [ [ -120.388030418157442, 36.731008363289611 ], [ -120.387858701539045, 36.736073817466611 ], [ -120.396887317176507, 36.736271772733247 ], [ -120.397058441909962, 36.731206282273135 ], [ -120.388030418157442, 36.731008363289611 ] ] ] } },
{ "type": "Feature", "properties": { "FACILITYID": "10006180", "NAME": "FCI MENDOTA CAMP", "ADDRESS": "33500 WEST CALIFORNIA AVENUE", "CITY": "MENDOTA", "STATE": "CA", "ZIP": "93640" }, "geometry": { "type": "Polygon", "coordinates": [ [ [ -120.390162130684644, 36.726498872729429 ], [ -120.390007263765298, 36.731071824650201 ], [ -120.394593863411757, 36.731172384896873 ], [ -120.394748458931275, 36.726599416335567 ], [ -120.390162130684644, 36.726498872729429 ] ] ] } },
{ "type": "Feature", "properties": { "FACILITYID": "10006194", "NAME": "USP ATWATER CAMP", "ADDRESS": "1 FEDERAL WAY", "CITY": "ATWATER", "STATE": "CA", "ZIP": "95301" }, "geometry": { "type": "Polygon", "coordinates": [ [ [ -120.561250853350799, 37.381337235225672 ], [ -120.561133054212277, 37.384972374469008 ], [ -120.565556197038333, 37.385063565776953 ], [ -120.565673783050599, 37.381428414616629 ], [ -120.561250853350799, 37.381337235225672 ] ] ] } },
{ "type": "Feature", "properties": { "FACILITYID": "10003978", "NAME": "ICE FLORENCE SPC", "ADDRESS": "3250 N. PINAL PARKWAY", "CITY": "FLORENCE", "STATE": "AZ", "ZIP": "85132" }, "geometry": { "type": "Polygon", "coordinates": [ [ [ -111.379528050542191, 33.062801056606119 ], [ -111.379538908460049, 33.065330841367988 ], [ -111.387041669725178, 33.065307783276708 ], [ -111.387030597179901, 33.062778000728898 ], [ -111.379528050542191, 33.062801056606119 ] ] ] } },
{ "type": "Feature", "properties": { "FACILITYID": "10004622", "NAME": "BRADENTON BRIDGE", "ADDRESS": "2104 63RD AVENUE EAST", "CITY": "BRADENTON", "STATE": "FL", "ZIP": "34203" }, "geometry": { "type": "Polygon", "coordinates": [ [ [ -82.536392232109534, 27.427407418455338 ], [ -82.536425995418512, 27.429845793200041 ], [ -82.538972308831148, 27.42981769660749 ], [ -82.538938489620136, 27.427379324774058 ], [ -82.536392232109534, 27.427407418455338 ] ] ] } },
{ "type": "Feature", "properties": { "FACILITYID": "10006669", "NAME": "SECURE COMMUNITY TRANSITION FACILITY - KING COUNTY", "ADDRESS": "132 SOUTH SPOKANE STREET", "CITY": "SEATTLE", "STATE": "WA", "ZIP": "98134" }, "geometry": { "type": "Polygon", "coordinates": [ [ [ -122.331069455903972, 47.570858725886524 ], [ -122.33104028299465, 47.573149482129793 ], [ -122.334092050581631, 47.57316724048318 ], [ -122.334121090429306, 47.570876482823721 ], [ -122.331069455903972, 47.570858725886524 ] ] ] } },
{ "type": "Feature", "properties": { "FACILITYID": "10000615", "NAME": "ASPC-EYMAN", "ADDRESS": "4374 E BUTTE AVE", "CITY": "FLORENCE", "STATE": "AZ", "ZIP": "85132" }, "geometry": { "type": "Polygon", "coordinates": [ [ [ -111.312943116576108, 33.031268442463038 ], [ -111.312992777477646, 33.04531378962762 ], [ -111.33853114821774, 33.04524710395426 ], [ -111.338477435460021, 33.031201792346842 ], [ -111.312943116576108, 33.031268442463038 ] ] ] } },
{ "type": "Feature", "properties": { "FACILITYID": "10000632", "NAME": "ASPC-DOUGLAS", "ADDRESS": "6911 N BDI BLVD", "CITY": "DOUGLAS", "STATE": "AZ", "ZIP": "85607" }, "geometry": { "type": "Polygon", "coordinates": [ [ [ -109.586960161218727, 31.455533234529717 ], [ -109.58676315639498, 31.468648469270892 ], [ -109.594263681896734, 31.468731044799434 ], [ -109.594459641990682, 31.455615767837958 ], [ -109.586960161218727, 31.455533234529717 ] ] ] } },
{ "type": "Feature", "properties": { "FACILITYID": "10000600", "NAME": "ASPC-FLORENCE GLOBE UNIT", "ADDRESS": "1000 FAIRGROUNDS RD", "CITY": "GLOBE", "STATE": "AZ", "ZIP": "85501" }, "geometry": { "type": "Polygon", "coordinates": [ [ [ -110.708476813258798, 33.41434079916796 ], [ -110.708462500963805, 33.41862403701608 ], [ -110.713422965878323, 33.418635595266643 ], [ -110.713437034660046, 33.414352355549639 ], [ -110.708476813258798, 33.41434079916796 ] ] ] } },
{ "type": "Feature", "properties": { "FACILITYID": "10003976", "NAME": "ASPC-FLORENCE", "ADDRESS": "1305 E. BUTTE AVE", "CITY": "FLORENCE", "STATE": "AZ", "ZIP": "85132" }, "geometry": { "type": "Polygon", "coordinates": [ [ [ -111.359727844597913, 33.023563695282228 ], [ -111.359769936424485, 33.033924021744291 ], [ -111.378987735727947, 33.033867131216638 ], [ -111.378943395613774, 33.02350682713513 ], [ -111.359727844597913, 33.023563695282228 ] ] ] } },
{ "type": "Feature", "properties": { "FACILITYID": "10002469", "NAME": "BISHOP LEWIS WORK RELEASE", "ADDRESS": "703 8TH AVE", "CITY": "SEATTLE", "STATE": "WA", "ZIP": "98104" }, "geometry": { "type": "Polygon", "coordinates": [ [ [ -122.325350259285742, 47.604838436021161 ], [ -122.325323582066872, 47.606912994084716 ], [ -122.328361544716785, 47.606930821743894 ], [ -122.328388101834349, 47.604856262392659 ], [ -122.325350259285742, 47.604838436021161 ] ] ] } },
{ "type": "Feature", "properties": { "FACILITYID": "10006451", "NAME": "SOUTH CORRECTIONAL ENTITY REGIONAL JAIL", "ADDRESS": "20817 17TH AVENUE SOUTH", "CITY": "DES MOINES", "STATE": "WA", "ZIP": "98198" }, "geometry": { "type": "Polygon", "coordinates": [ [ [ -122.310165913110808, 47.413257157294353 ], [ -122.310127359509536, 47.416209030966655 ], [ -122.314760356089266, 47.416236817222945 ], [ -122.314798650824585, 47.413284940696663 ], [ -122.310165913110808, 47.413257157294353 ] ] ] } },
{ "type": "Feature", "properties": { "FACILITYID": "10002463", "NAME": "PENINSULA WORK RELEASE", "ADDRESS": "1340 LLOYD PKWY", "CITY": "PORT ORCHARD", "STATE": "WA", "ZIP": "98367" }, "geometry": { "type": "Polygon", "coordinates": [ [ [ -122.666085970460884, 47.521758598425023 ], [ -122.666070622376949, 47.52417719171229 ], [ -122.670392177398895, 47.524189693502464 ], [ -122.670407326864066, 47.521771099162734 ], [ -122.666085970460884, 47.521758598425023 ] ] ] } },
{ "type": "Feature", "properties": { "FACILITYID": "10001684", "NAME": "WASHINGTON CORRECTIONS CENTER FOR WOMEN", "ADDRESS": "9601 BUJACICH RD NW", "CITY": "GIG HARBOR", "STATE": "WA", "ZIP": "98332" }, "geometry": { "type": "Polygon", "coordinates": [ [ [ -122.609195417392314, 47.344882502579388 ], [ -122.609158579806788, 47.349872990405466 ], [ -122.616638901786047, 47.349898252984374 ], [ -122.616675034378787, 47.344907760772557 ], [ -122.609195417392314, 47.344882502579388 ] ] ] } },
{ "type": "Feature", "properties": { "FACILITYID": "10001687", "NAME": "COYOTE RIDGE CORRECTIONS CENTER", "ADDRESS": "1301 N EPHRATA AVE", "CITY": "CONNELL", "STATE": "WA", "ZIP": "99326" }, "geometry": { "type": "Polygon", "coordinates": [ [ [ -118.846696427148956, 46.672637845162164 ], [ -118.847123077742737, 46.685155054999619 ], [ -118.858627912839324, 46.684968696304487 ], [ -118.858198608562276, 46.672451567469345 ], [ -118.846696427148956, 46.672637845162164 ] ] ] } },
{ "type": "Feature", "properties": { "FACILITYID": "10001677", "NAME": "AIRWAY HEIGHTS CORRECTIONS CENTER", "ADDRESS": "11919 W SPRAGUE AVE", "CITY": "AIRWAY HEIGHTS", "STATE": "WA", "ZIP": "99001" }, "geometry": { "type": "Polygon", "coordinates": [ [ [ -117.571147307565312, 47.649600369100831 ], [ -117.571238074390706, 47.657923577302086 ], [ -117.58304240813807, 47.657864197468427 ], [ -117.582949765920361, 47.649541006475445 ], [ -117.571147307565312, 47.649600369100831 ] ] ] } },
{ "type": "Feature", "properties": { "FACILITYID": "10006219", "NAME": "AHTANUM VIEW WORK RELEASE CENTER", "ADDRESS": "2009 S 64TH AVE", "CITY": "YAKIMA", "STATE": "WA", "ZIP": "98903" }, "geometry": { "type": "Polygon", "coordinates": [ [ [ -120.590369341157299, 46.566831650421733 ], [ -120.590222807876501, 46.570138613620486 ], [ -120.594332327665839, 46.570225156273494 ], [ -120.594478611643851, 46.566918183137282 ], [ -120.590369341157299, 46.566831650421733 ] ] ] } },
{ "type": "Feature", "properties": { "FACILITYID": "10002471", "NAME": "MADISON INN WORK RELEASE", "ADDRESS": "102 21ST AVE E", "CITY": "SEATTLE", "STATE": "WA", "ZIP": "98112" }, "geometry": { "type": "Polygon", "coordinates": [ [ [ -122.302965476671019, 47.617633241797691 ], [ -122.302938873511678, 47.619634699428502 ], [ -122.305933242180174, 47.619652855448237 ], [ -122.305959731082638, 47.617651396552191 ], [ -122.302965476671019, 47.617633241797691 ] ] ] } },
{ "type": "Feature", "properties": { "FACILITYID": "10001690", "NAME": "LARCH CORRECTIONS CENTER", "ADDRESS": "15314 NE DOLE VALLEY RD", "CITY": "YACOLT", "STATE": "WA", "ZIP": "98675" }, "geometry": { "type": "Polygon", "coordinates": [ [ [ -122.339422332075529, 45.73003858475915 ], [ -122.339371626790467, 45.734339280267825 ], [ -122.345794814259889, 45.734376240851439 ], [ -122.345845026631423, 45.730075539830004 ], [ -122.339422332075529, 45.73003858475915 ] ] ] } },
{ "type": "Feature", "properties": { "FACILITYID": "10001678", "NAME": "FDC SEATAC", "ADDRESS": "2425 S 200TH ST", "CITY": "SEATTLE", "STATE": "WA", "ZIP": "98198" }, "geometry": { "type": "Polygon", "coordinates": [ [ [ -122.299596286476387, 47.420708842704471 ], [ -122.29956170704213, 47.42331581586344 ], [ -122.303451057778247, 47.423339512714222 ], [ -122.303485445239886, 47.420732537405641 ], [ -122.299596286476387, 47.420708842704471 ] ] ] } },
{ "type": "Feature", "properties": { "FACILITYID": "10000987", "NAME": "CLALLAM BAY CORRECTIONS CENTER", "ADDRESS": "1830 EAGLE CREST WAY", "CITY": "CLALLAM BAY", "STATE": "WA", "ZIP": "98326" }, "geometry": { "type": "Polygon", "coordinates": [ [ [ -124.282777689729642, 48.236855171571506 ], [ -124.282897686893492, 48.241653988866368 ], [ -124.291194665105877, 48.241561104025799 ], [ -124.291073892399368, 48.236762302284887 ], [ -124.282777689729642, 48.236855171571506 ] ] ] } },
{ "type": "Feature", "properties": { "FACILITYID": "10002491", "NAME": "CEDAR CREEK CORRECTIONS CENTER", "ADDRESS": "12200 BORDEAUX RD", "CITY": "LITTLEROCK", "STATE": "WA", "ZIP": "98556" }, "geometry": { "type": "Polygon", "coordinates": [ [ [ -123.140133860418047, 46.881804974590871 ], [ -123.140143470145119, 46.885495292315916 ], [ -123.146296211268918, 46.885487594919248 ], [ -123.146286179648058, 46.881797278181203 ], [ -123.140133860418047, 46.881804974590871 ] ] ] } },
{ "type": "Feature", "properties": { "FACILITYID": "10002479", "NAME": "MISSION CREEK CORRECTIONS CENTER FOR WOMEN", "ADDRESS": "3420 NE SAND HILL RD", "CITY": "BELFAIR", "STATE": "WA", "ZIP": "98528" }, "geometry": { "type": "Polygon", "coordinates": [ [ [ -122.862017746919406, 47.482039969452941 ], [ -122.862007339309727, 47.486014294404313 ], [ -122.866630982256254, 47.486019765172216 ], [ -122.866641041146522, 47.482045439464159 ], [ -122.862017746919406, 47.482039969452941 ] ] ] } },
{ "type": "Feature", "properties": { "FACILITYID": "10001676", "NAME": "MONROE CORRECTIONAL COMPLEX", "ADDRESS": "16550 177TH AVE SE", "CITY": "MONROE", "STATE": "WA", "ZIP": "98272" }, "geometry": { "type": "Polygon", "coordinates": [ [ [ -121.993231696575791, 47.840531255416543 ], [ -121.993061029939796, 47.849349391290865 ], [ -122.007053260317079, 47.849471267279881 ], [ -122.00722155635853, 47.840653093961528 ], [ -121.993231696575791, 47.840531255416543 ] ] ] } },
{ "type": "Feature", "properties": { "FACILITYID": "10002455", "NAME": "OLYMPIC CORRECTIONS CENTER", "ADDRESS": "11235 HOH MAINLINE", "CITY": "FORKS", "STATE": "WA", "ZIP": "98331" }, "geometry": { "type": "Polygon", "coordinates": [ [ [ -124.130596456922461, 47.712948095591173 ], [ -124.130778994908994, 47.721384279104683 ], [ -124.139152977168195, 47.721301450655815 ], [ -124.13896908810662, 47.712865291476867 ], [ -124.130596456922461, 47.712948095591173 ] ] ] } },
{ "type": "Feature", "properties": { "FACILITYID": "10001681", "NAME": "STAFFORD CREEK CORRECTIONS CENTER", "ADDRESS": "191 CONSTANTINE WAY", "CITY": "ABERDEEN", "STATE": "WA", "ZIP": "98520" }, "geometry": { "type": "Polygon", "coordinates": [ [ [ -123.912958875165543, 46.918874425885519 ], [ -123.913066656397035, 46.925218315323754 ], [ -123.923994682512117, 46.925130635069188 ], [ -123.923885611746996, 46.918786764958661 ], [ -123.912958875165543, 46.918874425885519 ] ] ] } },
{ "type": "Feature", "properties": { "FACILITYID": "10001679", "NAME": "WASHINGTON CORRECTIONS CENTER", "ADDRESS": "2321 WEST DAYTON AIRPORT RD", "CITY": "SHELTON", "STATE": "WA", "ZIP": "98584" }, "geometry": { "type": "Polygon", "coordinates": [ [ [ -123.185910595150133, 47.23336584869844 ], [ -123.18594354996651, 47.242786508262135 ], [ -123.199483470237752, 47.24276373674536 ], [ -123.199448115775752, 47.233343084641447 ], [ -123.185910595150133, 47.23336584869844 ] ] ] } },
{ "type": "Feature", "properties": { "FACILITYID": "10002440", "NAME": "BELLINGHAM WORK RELEASE", "ADDRESS": "1127 N GARDEN ST", "CITY": "BELLINGHAM", "STATE": "WA", "ZIP": "98225" }, "geometry": { "type": "Polygon", "coordinates": [ [ [ -122.475496132304116, 48.745062172310128 ], [ -122.475475101639645, 48.747082979215058 ], [ -122.478544967653846, 48.747096911339924 ], [ -122.47856587524663, 48.745076103450359 ], [ -122.475496132304116, 48.745062172310128 ] ] ] } },
{ "type": "Feature", "properties": { "FACILITYID": "10002460", "NAME": "BROWNSTONE WORK RELEASE", "ADDRESS": "223 S BROWNE ST", "CITY": "SPOKANE", "STATE": "WA", "ZIP": "99201" }, "geometry": { "type": "Polygon", "coordinates": [ [ [ -117.411698649569331, 47.652736050923863 ], [ -117.411715795656804, 47.654917418010378 ], [ -117.414598076348597, 47.654907038792651 ], [ -117.414580810235606, 47.65272567249454 ], [ -117.411698649569331, 47.652736050923863 ] ] ] } },
{ "type": "Feature", "properties": { "FACILITYID": "10002470", "NAME": "HELEN B RATCLIFF WORK RELEASE", "ADDRESS": "1531 13TH AVE S", "CITY": "SEATTLE", "STATE": "WA", "ZIP": "98144" }, "geometry": { "type": "Polygon", "coordinates": [ [ [ -122.314848156061018, 47.587935817445853 ], [ -122.314820761662588, 47.590034735950987 ], [ -122.31780741138229, 47.590052537628473 ], [ -122.317834686392999, 47.587953617822514 ], [ -122.314848156061018, 47.587935817445853 ] ] ] } },
{ "type": "Feature", "properties": { "FACILITYID": "10002493", "NAME": "OLYMPIA WORK RELEASE", "ADDRESS": "1800 11TH AVE SW", "CITY": "OLYMPIA", "STATE": "WA", "ZIP": "98502" }, "geometry": { "type": "Polygon", "coordinates": [ [ [ -122.923829107823792, 47.036771510479284 ], [ -122.923826231290548, 47.038792823307126 ], [ -122.926899038639732, 47.038794825914422 ], [ -122.926901799135479, 47.036773512945864 ], [ -122.923829107823792, 47.036771510479284 ] ] ] } },
{ "type": "Feature", "properties": { "FACILITYID": "10000281", "NAME": "MCI - CONCORD", "ADDRESS": "965 ELM ST", "CITY": "CONCORD", "STATE": "MA", "ZIP": "01742" }, "geometry": { "type": "Polygon", "coordinates": [ [ [ -71.392176663084982, 42.462187981073257 ], [ -71.392383659165461, 42.467621613335623 ], [ -71.39900264063867, 42.467483188153089 ], [ -71.398795073201697, 42.462049582070755 ], [ -71.392176663084982, 42.462187981073257 ] ] ] } },
{ "type": "Feature", "properties": { "FACILITYID": "10002472", "NAME": "REYNOLDS WORK RELEASE", "ADDRESS": "410 4TH AVE", "CITY": "SEATTLE", "STATE": "WA", "ZIP": "98104" }, "geometry": { "type": "Polygon", "coordinates": [ [ [ -122.327394342636651, 47.601157593691269 ], [ -122.327367446986699, 47.603255765230138 ], [ -122.330515818184338, 47.6032741834048 ], [ -122.330542587967571, 47.601176010520483 ], [ -122.327394342636651, 47.601157593691269 ] ] ] } },
{ "type": "Feature", "properties": { "FACILITYID": "10002505", "NAME": "TRI-CITIES WORK RELEASE", "ADDRESS": "524 E BRUNEAU AVE", "CITY": "KENNEWICK", "STATE": "WA", "ZIP": "99336" }, "geometry": { "type": "Polygon", "coordinates": [ [ [ -119.106895389014738, 46.208431800400071 ], [ -119.10699812275476, 46.211117389364489 ], [ -119.110054367650747, 46.21106099668603 ], [ -119.109951485162654, 46.208375412977112 ], [ -119.106895389014738, 46.208431800400071 ] ] ] } },
{ "type": "Feature", "properties": { "FACILITYID": "10002485", "NAME": "SECURE COMMUNITY TRANSITION FACILITY - PIERCE COUNTY", "ADDRESS": "11150 N 20TH AVE", "CITY": "LOWER PENINSULA", "STATE": "WA", "ZIP": "98303" }, "geometry": { "type": "Polygon", "coordinates": [ [ [ -122.684413064558086, 47.215781818756632 ], [ -122.68439816831598, 47.218292378748082 ], [ -122.688350983895347, 47.218303198427847 ], [ -122.688365693573999, 47.215792637491766 ], [ -122.684413064558086, 47.215781818756632 ] ] ] } },
{ "type": "Feature", "properties": { "FACILITYID": "10006668", "NAME": "SPECIAL COMMITMENT CENTER - TOTAL CONFINEMENT FACILITY", "ADDRESS": "11150 N 20TH AVE", "CITY": "MCNEIL ISLAND", "STATE": "WA", "ZIP": "98303" }, "geometry": { "type": "Polygon", "coordinates": [ [ [ -122.684998626977148, 47.212533450791426 ], [ -122.684969378213296, 47.217472337950255 ], [ -122.691233952947073, 47.217489391005458 ], [ -122.691262620104254, 47.212550500917814 ], [ -122.684998626977148, 47.212533450791426 ] ] ] } },
{ "type": "Feature", "properties": { "FACILITYID": "10000613", "NAME": "FCI SAFFORD", "ADDRESS": "1529 W HWY 366", "CITY": "SAFFORD", "STATE": "AZ", "ZIP": "85546" }, "geometry": { "type": "Polygon", "coordinates": [ [ [ -109.721337253333118, 32.714131713834107 ], [ -109.721249543945078, 32.720277504817176 ], [ -109.727326728888926, 32.720339343357075 ], [ -109.727414021718232, 32.714193537870216 ], [ -109.721337253333118, 32.714131713834107 ] ] ] } },
{ "type": "Feature", "properties": { "FACILITYID": "10000830", "NAME": "USP VICTORVILLE", "ADDRESS": "13777 AIR EXPRESSWAY BOULEVARD", "CITY": "VICTORVILLE", "STATE": "CA", "ZIP": "92394" }, "geometry": { "type": "Polygon", "coordinates": [ [ [ -117.367645136635431, 34.561600542104799 ], [ -117.367676134876533, 34.568644155319788 ], [ -117.37350554387281, 34.568626458202317 ], [ -117.373474054190339, 34.561582849616123 ], [ -117.367645136635431, 34.561600542104799 ] ] ] } },
{ "type": "Feature", "properties": { "FACILITYID": "10004645", "NAME": "KROME NORTH SERVICE PROCESSING CENTER", "ADDRESS": "18201 SOUTHWEST 12TH STREET", "CITY": "MIAMI", "STATE": "FL", "ZIP": "33194" }, "geometry": { "type": "Polygon", "coordinates": [ [ [ -80.48775963994656, 25.752750469043256 ], [ -80.487737932776795, 25.757810357001841 ], [ -80.493705414366175, 25.757831231286797 ], [ -80.493726868689635, 25.75277133863775 ], [ -80.48775963994656, 25.752750469043256 ] ] ] } },
{ "type": "Feature", "properties": { "FACILITYID": "10002097", "NAME": "BRIDGEWATER STATE HOSPITAL", "ADDRESS": "20 ADMINISTRATION RD", "CITY": "BRIDGEWATER", "STATE": "MA", "ZIP": "02324" }, "geometry": { "type": "Polygon", "coordinates": [ [ [ -70.95191046884095, 41.939932174798273 ], [ -70.952054600389559, 41.944656015938847 ], [ -70.958918007607721, 41.944539078620707 ], [ -70.958773370082412, 41.939815256742293 ], [ -70.95191046884095, 41.939932174798273 ] ] ] } },
{ "type": "Feature", "properties": { "FACILITYID": "10006306", "NAME": "CAI - BOSTON AVENUE", "ADDRESS": "2727 BOSTON AVENUE", "CITY": "SAN DIEGO", "STATE": "CA", "ZIP": "92113" }, "geometry": { "type": "Polygon", "coordinates": [ [ [ -117.13379105326517, 32.692436913628384 ], [ -117.133794352643321, 32.694648836096214 ], [ -117.136254332887987, 32.694646188209617 ], [ -117.136250972847023, 32.692434265965403 ], [ -117.13379105326517, 32.692436913628384 ] ] ] } },
{ "type": "Feature", "properties": { "FACILITYID": "10000624", "NAME": "FCI TUCSON", "ADDRESS": "8901 S WILMOT RD", "CITY": "TUCSON", "STATE": "AZ", "ZIP": "85706" }, "geometry": { "type": "Polygon", "coordinates": [ [ [ -110.853945016548082, 32.087163730283898 ], [ -110.853937077168624, 32.092154592070379 ], [ -110.858605561796452, 32.092159888731373 ], [ -110.858613247418404, 32.087169025925469 ], [ -110.853945016548082, 32.087163730283898 ] ] ] } },
{ "type": "Feature", "properties": { "FACILITYID": "10000601", "NAME": "FCI PHOENIX", "ADDRESS": "37900 N 45TH AVE", "CITY": "PHOENIX", "STATE": "AZ", "ZIP": "85086" }, "geometry": { "type": "Polygon", "coordinates": [ [ [ -112.165335589818412, 33.83066108600157 ], [ -112.165429673259226, 33.837592941310888 ], [ -112.171584024062341, 33.837534610342274 ], [ -112.171489444066012, 33.830602770201985 ], [ -112.165335589818412, 33.83066108600157 ] ] ] } },
{ "type": "Feature", "properties": { "FACILITYID": "10000627", "NAME": "USP TUCSON", "ADDRESS": "9300 S WILMOT RD", "CITY": "TUCSON", "STATE": "AZ", "ZIP": "85756" }, "geometry": { "type": "Polygon", "coordinates": [ [ [ -110.862784756097014, 32.080752289117854 ], [ -110.862775527992952, 32.086928342810644 ], [ -110.871449874588549, 32.086937441206615 ], [ -110.871458519362108, 32.080761385346683 ], [ -110.862784756097014, 32.080752289117854 ] ] ] } },
{ "type": "Feature", "properties": { "FACILITYID": "10000892", "NAME": "MDC LOS ANGELES", "ADDRESS": "535 NORTH ALAMEDA STREET", "CITY": "LOS ANGELES", "STATE": "CA", "ZIP": "90012" }, "geometry": { "type": "Polygon", "coordinates": [ [ [ -118.23687968242271, 34.052302513861193 ], [ -118.236918264141295, 34.054958601391583 ], [ -118.239917084553397, 34.054928385239037 ], [ -118.239878409354532, 34.052272300710278 ], [ -118.23687968242271, 34.052302513861193 ] ] ] } },
{ "type": "Feature", "properties": { "FACILITYID": "10000867", "NAME": "USP LOMPOC CAMP", "ADDRESS": "3901 KLEIN BLVD", "CITY": "LOMPOC", "STATE": "CA", "ZIP": "93436" }, "geometry": { "type": "Polygon", "coordinates": [ [ [ -120.500623919903106, 34.672785452445169 ], [ -120.50049739714423, 34.676994411212576 ], [ -120.508116959676585, 34.677150507836814 ], [ -120.508243097714157, 34.672941524706822 ], [ -120.500623919903106, 34.672785452445169 ] ] ] } },
{ "type": "Feature", "properties": { "FACILITYID": "10006193", "NAME": "USP TUCSON CAMP", "ADDRESS": "9300 SOUTH WILMOT", "CITY": "TUCSON", "STATE": "AZ", "ZIP": "85756" }, "geometry": { "type": "Polygon", "coordinates": [ [ [ -110.858837970616563, 32.079074618108763 ], [ -110.858830630702755, 32.083850102537596 ], [ -110.865032148349343, 32.083856860490073 ], [ -110.86503916582592, 32.079081374816525 ], [ -110.858837970616563, 32.079074618108763 ] ] ] } },
{ "type": "Feature", "properties": { "FACILITYID": "10006299", "NAME": "USP LOMPOC NORTH CAMP", "ADDRESS": "3901 KLEIN BLVD", "CITY": "LOMPOC", "STATE": "CA", "ZIP": "93436" }, "geometry": { "type": "Polygon", "coordinates": [ [ [ -120.50193832393424, 34.682869011342348 ], [ -120.501851993375183, 34.685741443880779 ], [ -120.505046671372568, 34.685806920956537 ], [ -120.505132891809922, 34.682934481444626 ], [ -120.50193832393424, 34.682869011342348 ] ] ] } },
{ "type": "Feature", "properties": { "FACILITYID": "10000338", "NAME": "FCI MARIANNA CAMP", "ADDRESS": "3625 FCI RD", "CITY": "MARIANNA", "STATE": "FL", "ZIP": "32446" }, "geometry": { "type": "Polygon", "coordinates": [ [ [ -85.188648008288439, 30.826451819987973 ], [ -85.188586706934686, 30.829715982654413 ], [ -85.192013292228836, 30.829763864079432 ], [ -85.192074477775151, 30.826499695246788 ], [ -85.188648008288439, 30.826451819987973 ] ] ] } },
{ "type": "Feature", "properties": { "FACILITYID": "10000550", "NAME": "FCI MIAMI CAMP", "ADDRESS": "15801 SW 137TH AVE", "CITY": "MIAMI", "STATE": "FL", "ZIP": "33177" }, "geometry": { "type": "Polygon", "coordinates": [ [ [ -80.411089307376159, 25.613575041620631 ], [ -80.411073019831761, 25.616898117844144 ], [ -80.414441678533251, 25.616911652351405 ], [ -80.414457872925993, 25.613588574122616 ], [ -80.411089307376159, 25.613575041620631 ] ] ] } },
{ "type": "Feature", "properties": { "FACILITYID": "10000456", "NAME": "FCI COLEMAN LOW CAMP", "ADDRESS": "846 NE 54TH TERRACE", "CITY": "SUMTERVILLE", "STATE": "FL", "ZIP": "33521" }, "geometry": { "type": "Polygon", "coordinates": [ [ [ -82.013365618395596, 28.76130979817518 ], [ -82.01339586475838, 28.764441054771055 ], [ -82.016712058896289, 28.764416141299296 ], [ -82.016681713598089, 28.761284887915608 ], [ -82.013365618395596, 28.76130979817518 ] ] ] } },
{ "type": "Feature", "properties": { "FACILITYID": "10000603", "NAME": "FCI PHOENIX CAMP", "ADDRESS": "37900 N 45TH AVE", "CITY": "PHOENIX", "STATE": "AZ", "ZIP": "85086" }, "geometry": { "type": "Polygon", "coordinates": [ [ [ -112.159912043880738, 33.831081876919221 ], [ -112.159957774374291, 33.834467198281004 ], [ -112.164129624580866, 33.834427877972331 ], [ -112.164083729705524, 33.831042561604733 ], [ -112.159912043880738, 33.831081876919221 ] ] ] } },
{ "type": "Feature", "properties": { "FACILITYID": "10000833", "NAME": "FCI VICTORVILLE MEDIUM II CAMP", "ADDRESS": "13777 AIR EXPRESSWAY BOULEVARD", "CITY": "VICTORVILLE", "STATE": "CA", "ZIP": "92394" }, "geometry": { "type": "Polygon", "coordinates": [ [ [ -117.36745835872415, 34.567466249134434 ], [ -117.367473568942472, 34.570923713003538 ], [ -117.371700189549742, 34.570910916062189 ], [ -117.371684804395727, 34.567453453836094 ], [ -117.36745835872415, 34.567466249134434 ] ] ] } },
{ "type": "Feature", "properties": { "FACILITYID": "10002250", "NAME": "FLORENCE CORRECTIONAL CENTER", "ADDRESS": "1100 BOWLING RD", "CITY": "FLORENCE", "STATE": "AZ", "ZIP": "85132" }, "geometry": { "type": "Polygon", "coordinates": [ [ [ -111.369497110800154, 33.042113326726557 ], [ -111.369515471336712, 33.046510559206773 ], [ -111.374067837528287, 33.046496992157749 ], [ -111.374049250805896, 33.042099761942531 ], [ -111.369497110800154, 33.042113326726557 ] ] ] } },
{ "type": "Feature", "properties": { "FACILITYID": "10000831", "NAME": "FCI VICTORVILLE MEDIUM II", "ADDRESS": "13777 AIR EXPRESSWAY BOULEVARD", "CITY": "VICTORVILLE", "STATE": "CA", "ZIP": "92394" }, "geometry": { "type": "Polygon", "coordinates": [ [ [ -117.353819121856048, 34.565687775754142 ], [ -117.353843175272104, 34.571366245664507 ], [ -117.363016861480276, 34.57133930881762 ], [ -117.362992184491844, 34.565660844587143 ], [ -117.353819121856048, 34.565687775754142 ] ] ] } },
{ "type": "Feature", "properties": { "FACILITYID": "10000832", "NAME": "FCI VICTORVILLE MEDIUM I", "ADDRESS": "13777 AIR EXPRESSWAY BOULEVARD", "CITY": "VICTORVILLE", "STATE": "CA", "ZIP": "92394" }, "geometry": { "type": "Polygon", "coordinates": [ [ [ -117.361360751568014, 34.562152221121792 ], [ -117.36138957280167, 34.568814981190641 ], [ -117.367744687764485, 34.56879600167931 ], [ -117.367715359730681, 34.562133246306267 ], [ -117.361360751568014, 34.562152221121792 ] ] ] } },
{ "type": "Feature", "properties": { "FACILITYID": "10000863", "NAME": "FCI LOMPOC", "ADDRESS": "3600 GUARD RD", "CITY": "LOMPOC", "STATE": "CA", "ZIP": "93436" }, "geometry": { "type": "Polygon", "coordinates": [ [ [ -120.495895255267541, 34.673422020713545 ], [ -120.495679561494057, 34.680583119133424 ], [ -120.503790298032001, 34.680749590698433 ], [ -120.50400529501006, 34.673588448076842 ], [ -120.495895255267541, 34.673422020713545 ] ] ] } },
{ "type": "Feature", "properties": { "FACILITYID": "10000330", "NAME": "FCI MARIANNA", "ADDRESS": "3625 FCI RD", "CITY": "MARIANNA", "STATE": "FL", "ZIP": "32446" }, "geometry": { "type": "Polygon", "coordinates": [ [ [ -85.187897576115319, 30.831986258870696 ], [ -85.187801273984576, 30.837110644307607 ], [ -85.196126517336083, 30.837226886312536 ], [ -85.196222377640865, 30.832102477378506 ], [ -85.187897576115319, 30.831986258870696 ] ] ] } },
{ "type": "Feature", "properties": { "FACILITYID": "10000375", "NAME": "FCI TALLAHASSEE", "ADDRESS": "501 CAPITAL CIRCLE NE", "CITY": "TALLAHASSEE", "STATE": "FL", "ZIP": "32301" }, "geometry": { "type": "Polygon", "coordinates": [ [ [ -84.219572514728952, 30.440504748088419 ], [ -84.219400099920463, 30.446575296627582 ], [ -84.22582051542733, 30.446712047883221 ], [ -84.225992533375887, 30.440641466349479 ], [ -84.219572514728952, 30.440504748088419 ] ] ] } },
{ "type": "Feature", "properties": { "FACILITYID": "10000542", "NAME": "FCI MIAMI", "ADDRESS": "15801 SW 137TH AVE", "CITY": "MIAMI", "STATE": "FL", "ZIP": "33177" }, "geometry": { "type": "Polygon", "coordinates": [ [ [ -80.406958083179134, 25.615632203724651 ], [ -80.406929264447186, 25.621470071662365 ], [ -80.414260092403637, 25.621499637528547 ], [ -80.41428855496298, 25.615661761896511 ], [ -80.406958083179134, 25.615632203724651 ] ] ] } },
{ "type": "Feature", "properties": { "FACILITYID": "10002095", "NAME": "BOSTON PRE-RELEASE CENTER", "ADDRESS": "430 CANTERBURY ST", "CITY": "ROSLINDALE", "STATE": "MA", "ZIP": "02131" }, "geometry": { "type": "Polygon", "coordinates": [ [ [ -71.099631878797894, 42.291249654472153 ], [ -71.099720302006858, 42.293910652636249 ], [ -71.103234481427933, 42.293846228281041 ], [ -71.10314591049594, 42.291185236087628 ], [ -71.099631878797894, 42.291249654472153 ] ] ] } },
{ "type": "Feature", "properties": { "FACILITYID": "10001435", "NAME": "FPC PENSACOLA", "ADDRESS": "110 RABY AVE", "CITY": "PENSACOLA", "STATE": "FL", "ZIP": "32509" }, "geometry": { "type": "Polygon", "coordinates": [ [ [ -87.337629751924112, 30.462249390323269 ], [ -87.337638066494875, 30.464660215233717 ], [ -87.340677254881129, 30.464652313858291 ], [ -87.340668865471756, 30.462241489704706 ], [ -87.337629751924112, 30.462249390323269 ] ] ] } },
{ "type": "Feature", "properties": { "FACILITYID": "10002330", "NAME": "FCI DUBLIN CAMP", "ADDRESS": "5675 8TH STREET", "CITY": "DUBLIN", "STATE": "CA", "ZIP": "94568" }, "geometry": { "type": "Polygon", "coordinates": [ [ [ -121.892196266524309, 37.713494205859192 ], [ -121.892145924765444, 37.716874832406077 ], [ -121.897931552052228, 37.716929062248148 ], [ -121.897981631037652, 37.713548429131144 ], [ -121.892196266524309, 37.713494205859192 ] ] ] } },
{ "type": "Feature", "properties": { "FACILITYID": "10004594", "NAME": "FCI COLEMAN MEDIUM", "ADDRESS": "846 NORTHEAST 54TH TERRACE", "CITY": "SUMTERVILLE", "STATE": "FL", "ZIP": "33521" }, "geometry": { "type": "Polygon", "coordinates": [ [ [ -82.003924708636518, 28.763085495176266 ], [ -82.003989829078634, 28.769889365841607 ], [ -82.01163283284005, 28.769832349415395 ], [ -82.011567216865345, 28.763028494721205 ], [ -82.003924708636518, 28.763085495176266 ] ] ] } },
{ "type": "Feature", "properties": { "FACILITYID": "10004595", "NAME": "USP COLEMAN II", "ADDRESS": "846 NORTHEAST 54TH TERRACE", "CITY": "SUMTERVILLE", "STATE": "FL", "ZIP": "33521" }, "geometry": { "type": "Polygon", "coordinates": [ [ [ -81.996091332824193, 28.762126597930777 ], [ -81.996133039371585, 28.766518873839566 ], [ -82.004002840868068, 28.766460621026319 ], [ -82.003960804958652, 28.762068355652406 ], [ -81.996091332824193, 28.762126597930777 ] ] ] } },
{ "type": "Feature", "properties": { "FACILITYID": "10004647", "NAME": "FDC MIAMI", "ADDRESS": "33 NORTHEAST 4TH STREET", "CITY": "MIAMI", "STATE": "FL", "ZIP": "33132" }, "geometry": { "type": "Polygon", "coordinates": [ [ [ -80.191743913320821, 25.777133700242484 ], [ -80.191725687212241, 25.779823334454203 ], [ -80.19473054090426, 25.779839996222673 ], [ -80.194748699273063, 25.777150360022024 ], [ -80.191743913320821, 25.777133700242484 ] ] ] } },
{ "type": "Feature", "properties": { "FACILITYID": "10000605", "NAME": "ASPC-LEWIS", "ADDRESS": "26700 S HWY 85", "CITY": "BUCKEYE", "STATE": "AZ", "ZIP": "85326" }, "geometry": { "type": "Polygon", "coordinates": [ [ [ -112.636952236014565, 33.19279038397314 ], [ -112.637427401452882, 33.218309779458934 ], [ -112.660555029653665, 33.218003195660522 ], [ -112.660073160265881, 33.192484096356182 ], [ -112.636952236014565, 33.19279038397314 ] ] ] } },
{ "type": "Feature", "properties": { "FACILITYID": "10000606", "NAME": "ASPC-PERRYVILLE", "ADDRESS": "2105 N CITRUS RD", "CITY": "GOODYEAR", "STATE": "AZ", "ZIP": "85395" }, "geometry": { "type": "Polygon", "coordinates": [ [ [ -112.427816353517173, 33.465223936712263 ], [ -112.427998892647054, 33.476351956047992 ], [ -112.453261023997015, 33.476058281253223 ], [ -112.453075258389489, 33.464930385167818 ], [ -112.427816353517173, 33.465223936712263 ] ] ] } },
{ "type": "Feature", "properties": { "FACILITYID": "10002245", "NAME": "ASPC-PHOENIX", "ADDRESS": "2500 E VAN BUREN ST", "CITY": "PHOENIX", "STATE": "AZ", "ZIP": "85008" }, "geometry": { "type": "Polygon", "coordinates": [ [ [ -112.020479333633901, 33.450633581770276 ], [ -112.020542532330097, 33.456028506242603 ], [ -112.031187393350038, 33.455940421789158 ], [ -112.03112353573735, 33.450545515245594 ], [ -112.020479333633901, 33.450633581770276 ] ] ] } },
{ "type": "Feature", "properties": { "FACILITYID": "10002249", "NAME": "ASPC-SAFFORD FT. GRANT UNIT", "ADDRESS": "15500 S FORT GRANT RD", "CITY": "SAFFORD", "STATE": "AZ", "ZIP": "85643" }, "geometry": { "type": "Polygon", "coordinates": [ [ [ -109.942062145788057, 32.619195038244541 ], [ -109.941974035520076, 32.626684500937806 ], [ -109.95022447254162, 32.626753749536292 ], [ -109.950311896038571, 32.619264267020519 ], [ -109.942062145788057, 32.619195038244541 ] ] ] } },
{ "type": "Feature", "properties": { "FACILITYID": "10002248", "NAME": "ASPC-SAFFORD", "ADDRESS": "896 S COOK RD", "CITY": "SAFFORD", "STATE": "AZ", "ZIP": "85546" }, "geometry": { "type": "Polygon", "coordinates": [ [ [ -109.558585368282451, 32.825612944289034 ], [ -109.558507528781931, 32.83043055412962 ], [ -109.56934181892936, 32.830554878302216 ], [ -109.56941907387467, 32.825737245644 ], [ -109.558585368282451, 32.825612944289034 ] ] ] } },
{ "type": "Feature", "properties": { "FACILITYID": "10000598", "NAME": "ASPC-WINSLOW APACHE UNIT", "ADDRESS": "38322 US HWY 180", "CITY": "ST. JOHNS", "STATE": "AZ", "ZIP": "85936" }, "geometry": { "type": "Polygon", "coordinates": [ [ [ -109.388366505139757, 34.319015231733879 ], [ -109.388298443505661, 34.322574862672298 ], [ -109.393085024720747, 34.322637774023974 ], [ -109.393152884431416, 34.319078134741453 ], [ -109.388366505139757, 34.319015231733879 ] ] ] } },
{ "type": "Feature", "properties": { "FACILITYID": "10000628", "NAME": "ASPC-TUCSON", "ADDRESS": "10000 S WILMOT RD", "CITY": "TUCSON", "STATE": "AZ", "ZIP": "85734" }, "geometry": { "type": "Polygon", "coordinates": [ [ [ -110.859303887674798, 32.060048553457911 ], [ -110.859280864866221, 32.07508450965841 ], [ -110.875148009252555, 32.075101136426852 ], [ -110.8751684360832, 32.060065170583684 ], [ -110.859303887674798, 32.060048553457911 ] ] ] } },
{ "type": "Feature", "properties": { "FACILITYID": "10000595", "NAME": "ASPC-WINSLOW", "ADDRESS": "2100 S HWY 87", "CITY": "WINSLOW", "STATE": "AZ", "ZIP": "86047" }, "geometry": { "type": "Polygon", "coordinates": [ [ [ -110.7170440933712, 34.980469787288087 ], [ -110.717015193891996, 34.988869201699693 ], [ -110.72547719751158, 34.988888629756204 ], [ -110.725505232845805, 34.980489209318471 ], [ -110.7170440933712, 34.980469787288087 ] ] ] } },
{ "type": "Feature", "properties": { "FACILITYID": "10000622", "NAME": "ASPC-YUMA", "ADDRESS": "7125 E CESAR CHAVEZ BLVD", "CITY": "SAN LUIS", "STATE": "AZ", "ZIP": "85349" }, "geometry": { "type": "Polygon", "coordinates": [ [ [ -114.630299020864413, 32.47912896970994 ], [ -114.629875215948147, 32.495287808118647 ], [ -114.649186879665322, 32.495650246801695 ], [ -114.649607239223329, 32.479491184089618 ], [ -114.630299020864413, 32.47912896970994 ] ] ] } },
{ "type": "Feature", "properties": { "FACILITYID": "10000618", "NAME": "CENTRAL ARIZONA CORRECTIONAL FACILITY", "ADDRESS": "1401 E DIVERSION DAM RD", "CITY": "FLORENCE", "STATE": "AZ", "ZIP": "85132" }, "geometry": { "type": "Polygon", "coordinates": [ [ [ -111.369913358696593, 33.03521174926194 ], [ -111.369929306200532, 33.039027841219486 ], [ -111.375979782170575, 33.039009755154765 ], [ -111.375963573847912, 33.035193665817907 ], [ -111.369913358696593, 33.03521174926194 ] ] ] } },
{ "type": "Feature", "properties": { "FACILITYID": "10003957", "NAME": "ASPC-KINGMAN", "ADDRESS": "4626 WEST ENGLISH DRIVE", "CITY": "GOLDEN VALLEY", "STATE": "AZ", "ZIP": "86414" }, "geometry": { "type": "Polygon", "coordinates": [ [ [ -114.175160285425179, 35.025254625443466 ], [ -114.174905547055644, 35.032652597113845 ], [ -114.183941489419894, 35.032862799275463 ], [ -114.184195415649626, 35.025464770210469 ], [ -114.175160285425179, 35.025254625443466 ] ] ] } },
{ "type": "Feature", "properties": { "FACILITYID": "10006312", "NAME": "ARIZONA STATE PRISON - FLORENCE WEST", "ADDRESS": "915 EAST DIVERSION DAM ROAD", "CITY": "FLORENCE", "STATE": "AZ", "ZIP": "85132" }, "geometry": { "type": "Polygon", "coordinates": [ [ [ -111.374250011564854, 33.035166773071388 ], [ -111.374265374839524, 33.038800486466656 ], [ -111.378779230048238, 33.038786864632677 ], [ -111.378763681494391, 33.035153153116909 ], [ -111.374250011564854, 33.035166773071388 ] ] ] } },
{ "type": "Feature", "properties": { "FACILITYID": "10005784", "NAME": "LA PALMA CORRECTIONAL CENTER", "ADDRESS": "5501 NORTH LA PALMA ROAD", "CITY": "ELOY", "STATE": "AZ", "ZIP": "85131" }, "geometry": { "type": "Polygon", "coordinates": [ [ [ -111.523299194909811, 32.810500452109892 ], [ -111.52333787764961, 32.817099800163831 ], [ -111.53116160324744, 32.817066851561492 ], [ -111.531122342279446, 32.81046751179278 ], [ -111.523299194909811, 32.810500452109892 ] ] ] } },
{ "type": "Feature", "properties": { "FACILITYID": "10000626", "NAME": "MARANA COMMUNITY CORRECTIONAL TREATMENT FACILITY", "ADDRESS": "12610 W SILVERBELL RD", "CITY": "MARANA", "STATE": "AZ", "ZIP": "85653" }, "geometry": { "type": "Polygon", "coordinates": [ [ [ -111.239169072074162, 32.416264111576197 ], [ -111.23917810786854, 32.419688945677095 ], [ -111.243479101279661, 32.419680707823019 ], [ -111.243469903004012, 32.416255874804165 ], [ -111.239169072074162, 32.416264111576197 ] ] ] } },
{ "type": "Feature", "properties": { "FACILITYID": "10002244", "NAME": "ASPC-PHOENIX WEST", "ADDRESS": "3402 W COCOPAH ST", "CITY": "PHOENIX", "STATE": "AZ", "ZIP": "85009" }, "geometry": { "type": "Polygon", "coordinates": [ [ [ -112.130614895077628, 33.431270920276326 ], [ -112.130653225466943, 33.434226520871306 ], [ -112.134375374331356, 33.434192528856549 ], [ -112.134336917822949, 33.431236932053352 ], [ -112.130614895077628, 33.431270920276326 ] ] ] } },
{ "type": "Feature", "properties": { "FACILITYID": "10003973", "NAME": "SAGUARO CORRECTIONAL CENTER", "ADDRESS": "1250 EAST ARICA ROAD", "CITY": "ELOY", "STATE": "AZ", "ZIP": "85131" }, "geometry": { "type": "Polygon", "coordinates": [ [ [ -111.522962980634261, 32.807315529041141 ], [ -111.522986249749508, 32.811288581281424 ], [ -111.530210855815398, 32.81125819614558 ], [ -111.530187265293733, 32.807285148505784 ], [ -111.522962980634261, 32.807315529041141 ] ] ] } },
{ "type": "Feature", "properties": { "FACILITYID": "10003974", "NAME": "RED ROCK CORRECTIONAL CENTER", "ADDRESS": "1750 EAST ARICA ROAD", "CITY": "ELOY", "STATE": "AZ", "ZIP": "85131" }, "geometry": { "type": "Polygon", "coordinates": [ [ [ -111.517614889691316, 32.807308554268637 ], [ -111.517639246752921, 32.811510315652974 ], [ -111.523994457430419, 32.811483880392942 ], [ -111.523969801363066, 32.807282123241457 ], [ -111.517614889691316, 32.807308554268637 ] ] ] } },
{ "type": "Feature", "properties": { "FACILITYID": "10000826", "NAME": "AVENAL STATE PRISON", "ADDRESS": "1 KINGS WAY", "CITY": "AVENAL", "STATE": "CA", "ZIP": "93204" }, "geometry": { "type": "Polygon", "coordinates": [ [ [ -120.117771730488272, 35.96891971425422 ], [ -120.117426627402466, 35.978404312194854 ], [ -120.128808923057662, 35.978677449296548 ], [ -120.129152668023409, 35.969192756837884 ], [ -120.117771730488272, 35.96891971425422 ] ] ] } },
{ "type": "Feature", "properties": { "FACILITYID": "10000852", "NAME": "CALIFORNIA CITY CORRECTIONAL CENTER (CAC)", "ADDRESS": "22844 VIRGINIA BLVD", "CITY": "CALIFORNIA CITY", "STATE": "CA", "ZIP": "93505" }, "geometry": { "type": "Polygon", "coordinates": [ [ [ -117.855493266122977, 35.150929333550408 ], [ -117.855543513923706, 35.155729231564543 ], [ -117.862338442561338, 35.155681056950712 ], [ -117.862287795800768, 35.150881167457847 ], [ -117.855493266122977, 35.150929333550408 ] ] ] } },
{ "type": "Feature", "properties": { "FACILITYID": "10000836", "NAME": "CALIFORNIA INSTITUTION FOR MEN (CIM)", "ADDRESS": "14901 CENTRAL AVENUE", "CITY": "CHINO", "STATE": "CA", "ZIP": "91710" }, "geometry": { "type": "Polygon", "coordinates": [ [ [ -117.6774544483482, 33.978075308802737 ], [ -117.677546650220862, 33.989695577118411 ], [ -117.688605567686835, 33.989634178314077 ], [ -117.688511861182533, 33.978013936704535 ], [ -117.6774544483482, 33.978075308802737 ] ] ] } },
{ "type": "Feature", "properties": { "FACILITYID": "10002341", "NAME": "CALIFORNIA INSTITUTION FOR WOMEN (CIW)", "ADDRESS": "16756 CHINO-CORONA ROAD", "CITY": "CORONA", "STATE": "CA", "ZIP": "92880" }, "geometry": { "type": "Polygon", "coordinates": [ [ [ -117.632581981638822, 33.945426849613192 ], [ -117.632643362069231, 33.953722369336944 ], [ -117.640067319842956, 33.953683990532006 ], [ -117.640005219243221, 33.945388482731936 ], [ -117.632581981638822, 33.945426849613192 ] ] ] } },
{ "type": "Feature", "properties": { "FACILITYID": "10002345", "NAME": "CALIFORNIA MEN'S COLONY (CMC)", "ADDRESS": "COLONY DRIVE", "CITY": "SAN LUIS OBISPO", "STATE": "CA", "ZIP": "93409" }, "geometry": { "type": "Polygon", "coordinates": [ [ [ -120.691379593950018, 35.32034995008906 ], [ -120.691162688397469, 35.327975679690631 ], [ -120.707087151882888, 35.328278893427132 ], [ -120.707302564605669, 35.320653078803112 ], [ -120.691379593950018, 35.32034995008906 ] ] ] } },
{ "type": "Feature", "properties": { "FACILITYID": "10000794", "NAME": "DEUEL VOCATIONAL INSTITUTION (DVI)", "ADDRESS": "23500 KASSON ROAD", "CITY": "TRACY", "STATE": "CA", "ZIP": "95304" }, "geometry": { "type": "Polygon", "coordinates": [ [ [ -121.326693334337676, 37.745635582873618 ], [ -121.326587188374504, 37.750348288654244 ], [ -121.334562490128832, 37.750461282437243 ], [ -121.334668130783328, 37.745748557579084 ], [ -121.326693334337676, 37.745635582873618 ] ] ] } },
{ "type": "Feature", "properties": { "FACILITYID": "10000785", "NAME": "CALIFORNIA MEDICAL FACILITY (CMF)", "ADDRESS": "1600 CALIFORNIA DRIVE", "CITY": "VACAVILLE", "STATE": "CA", "ZIP": "95696" }, "geometry": { "type": "Polygon", "coordinates": [ [ [ -121.974184599011238, 38.325137593777569 ], [ -121.97409365026661, 38.331588915004609 ], [ -121.984679184727426, 38.331681043055646 ], [ -121.984769195437252, 38.325229700644265 ], [ -121.974184599011238, 38.325137593777569 ] ] ] } },
{ "type": "Feature", "properties": { "FACILITYID": "10000824", "NAME": "CALIFORNIA STATE PRISON, CORCORAN (COR)", "ADDRESS": "4001 KING AVENUE", "CITY": "CORCORAN", "STATE": "CA", "ZIP": "93212" }, "geometry": { "type": "Polygon", "coordinates": [ [ [ -119.542788654838802, 36.056734204272153 ], [ -119.54306327570643, 36.065263441704708 ], [ -119.554811148041495, 36.065013470995623 ], [ -119.554535261898664, 36.056484311274431 ], [ -119.542788654838802, 36.056734204272153 ] ] ] } },
{ "type": "Feature", "properties": { "FACILITYID": "10000825", "NAME": "CA SUBSTANCE ABUSE TREATMENT FACILITY (SATF)", "ADDRESS": "900 QUEBEC AVE", "CITY": "CORCORAN", "STATE": "CA", "ZIP": "93212" }, "geometry": { "type": "Polygon", "coordinates": [ [ [ -119.536068207366966, 36.051170288238737 ], [ -119.536258659484503, 36.057102684184052 ], [ -119.558832092373038, 36.056622674581313 ], [ -119.558639949666485, 36.050690382441068 ], [ -119.536068207366966, 36.051170288238737 ] ] ] } },
{ "type": "Feature", "properties": { "FACILITYID": "10000801", "NAME": "CENTRAL CALIFORNIA WOMEN'S FACILITY (CCFW)", "ADDRESS": "23370 ROAD 22", "CITY": "CHOWCHILLA", "STATE": "CA", "ZIP": "93610" }, "geometry": { "type": "Polygon", "coordinates": [ [ [ -120.147552445099336, 37.089320897170914 ], [ -120.147234354879558, 37.097799769782732 ], [ -120.157882849123837, 37.098055671790334 ], [ -120.158199755915518, 37.089576720961389 ], [ -120.147552445099336, 37.089320897170914 ] ] ] } },
{ "type": "Feature", "properties": { "FACILITYID": "10002323", "NAME": "CALIFORNIA STATE PRISON, SOLANO (SOL)", "ADDRESS": "2100 PEABODY ROAD", "CITY": "VACAVILLE", "STATE": "CA", "ZIP": "95687" }, "geometry": { "type": "Polygon", "coordinates": [ [ [ -121.970764995711491, 38.316379084438857 ], [ -121.970638019486856, 38.32535829852312 ], [ -121.980002667960605, 38.325440121561059 ], [ -121.980128489505901, 38.316460881289174 ], [ -121.970764995711491, 38.316379084438857 ] ] ] } },
{ "type": "Feature", "properties": { "FACILITYID": "10002346", "NAME": "CHUCKAWALLA VALLEY STATE PRISON (CVSP)", "ADDRESS": "19025 WILEY'S WELL ROAD", "CITY": "BLYTHE", "STATE": "CA", "ZIP": "92225" }, "geometry": { "type": "Polygon", "coordinates": [ [ [ -114.903426320712128, 33.559587042878348 ], [ -114.903283816810728, 33.56548150236474 ], [ -114.91558703280451, 33.565689375572795 ], [ -114.915728701994709, 33.559794869933896 ], [ -114.903426320712128, 33.559587042878348 ] ] ] } },
{ "type": "Feature", "properties": { "FACILITYID": "10002353", "NAME": "CALIFORNIA STATE PRISON-LOS ANGELES COUNTY (LAC)", "ADDRESS": "44750 60TH STREET WEST", "CITY": "LANCASTER", "STATE": "CA", "ZIP": "93536" }, "geometry": { "type": "Polygon", "coordinates": [ [ [ -118.221079550409812, 34.690323492037997 ], [ -118.221174058996652, 34.696757297411665 ], [ -118.23413658380818, 34.696626698618353 ], [ -118.234041072648424, 34.690192924393052 ], [ -118.221079550409812, 34.690323492037997 ] ] ] } },
{ "type": "Feature", "properties": { "FACILITYID": "10000841", "NAME": "NORTH KERN STATE PRISON (NKSP)", "ADDRESS": "2737 WEST CECIL AVENUE", "CITY": "DELANO", "STATE": "CA", "ZIP": "93215" }, "geometry": { "type": "Polygon", "coordinates": [ [ [ -119.305516218774343, 35.77779149176029 ], [ -119.305745138173322, 35.785715101548043 ], [ -119.315855724820608, 35.785520707698026 ], [ -119.315625803802945, 35.777597154235288 ], [ -119.305516218774343, 35.77779149176029 ] ] ] } },
{ "type": "Feature", "properties": { "FACILITYID": "10000844", "NAME": "KERN VALLEY STATE PRISON (KVSP)", "ADDRESS": "3000 WEST CECIL AVENUE", "CITY": "DELANO", "STATE": "CA", "ZIP": "93216" }, "geometry": { "type": "Polygon", "coordinates": [ [ [ -119.320444902275938, 35.76145883820714 ], [ -119.3207974567934, 35.773589297771196 ], [ -119.330162139490568, 35.773408125504929 ], [ -119.329808165506918, 35.761277746312743 ], [ -119.320444902275938, 35.76145883820714 ] ] ] } },
{ "type": "Feature", "properties": { "FACILITYID": "10002309", "NAME": "PELICAN BAY STATE PRISON (PBSP)", "ADDRESS": "5905 LAKE EARL DRIVE", "CITY": "CRESCENT CITY", "STATE": "CA", "ZIP": "95531" }, "geometry": { "type": "Polygon", "coordinates": [ [ [ -124.142902654349143, 41.851181073902225 ], [ -124.143033976729512, 41.858556131694414 ], [ -124.157457605392665, 41.858411662458636 ], [ -124.157324626787599, 41.851036641830511 ], [ -124.142902654349143, 41.851181073902225 ] ] ] } },
{ "type": "Feature", "properties": { "FACILITYID": "10006530", "NAME": "FOLSOM WOMEN'S FACILITY (FWF)", "ADDRESS": "570 E NATOMA ST", "CITY": "REPRESA", "STATE": "CA", "ZIP": "95671" }, "geometry": { "type": "Polygon", "coordinates": [ [ [ -121.146683560378705, 38.691701855575943 ], [ -121.146609039952594, 38.694588933233788 ], [ -121.150970822936017, 38.694658003845525 ], [ -121.151045168229132, 38.691770919100684 ], [ -121.146683560378705, 38.691701855575943 ] ] ] } },
{ "type": "Feature", "properties": { "FACILITYID": "10000810", "NAME": "PLEASANT VALLEY STATE PRISON(PVSP)", "ADDRESS": "24863 WEST JAYNE AVENUE", "CITY": "COALINGA", "STATE": "CA", "ZIP": "93210" }, "geometry": { "type": "Polygon", "coordinates": [ [ [ -120.244952796847201, 36.126048475003245 ], [ -120.244580412917543, 36.136694045217901 ], [ -120.252556942512953, 36.136877418651302 ], [ -120.252928251757695, 36.126231777343229 ], [ -120.244952796847201, 36.126048475003245 ] ] ] } },
{ "type": "Feature", "properties": { "FACILITYID": "10000869", "NAME": "R J DONOVAN CORRECTIONAL FACILITY (RJD)", "ADDRESS": "480 ALTA ROAD", "CITY": "SAN DIEGO", "STATE": "CA", "ZIP": "92179" }, "geometry": { "type": "Polygon", "coordinates": [ [ [ -116.927577098113844, 32.580064880090561 ], [ -116.927569758479805, 32.589192761896896 ], [ -116.939664626507792, 32.589199151602777 ], [ -116.939670740524477, 32.580071267565934 ], [ -116.927577098113844, 32.580064880090561 ] ] ] } },
{ "type": "Feature", "properties": { "FACILITYID": "10000847", "NAME": "WASCO STATE PRISON (WSP)", "ADDRESS": "701 SCOFIELD AVENUE", "CITY": "WASCO", "STATE": "CA", "ZIP": "93280" }, "geometry": { "type": "Polygon", "coordinates": [ [ [ -119.403993022249296, 35.590199868321577 ], [ -119.404230855355692, 35.598149316931838 ], [ -119.414296525138752, 35.597947971100425 ], [ -119.414057698661793, 35.589998581150546 ], [ -119.403993022249296, 35.590199868321577 ] ] ] } },
{ "type": "Feature", "properties": { "FACILITYID": "10000802", "NAME": "VALLEY STATE PRISON (VSP)", "ADDRESS": "21633 AVENUE 24", "CITY": "CHOWCHILLA", "STATE": "CA", "ZIP": "93610" }, "geometry": { "type": "Polygon", "coordinates": [ [ [ -120.150307938382099, 37.10112752112623 ], [ -120.149991063611424, 37.109578550100643 ], [ -120.160625984749757, 37.109833908042475 ], [ -120.160941680970637, 37.101382801282661 ], [ -120.150307938382099, 37.10112752112623 ] ] ] } },
{ "type": "Feature", "properties": { "FACILITYID": "10000821", "NAME": "SALINAS VALLEY STATE PRISON (SVSP)", "ADDRESS": "31625 HIGHWAY 101", "CITY": "SOLEDAD", "STATE": "CA", "ZIP": "93960" }, "geometry": { "type": "Polygon", "coordinates": [ [ [ -121.368357317350657, 36.473641472413462 ], [ -121.368127198630887, 36.484614102751664 ], [ -121.383003239360661, 36.484816669318761 ], [ -121.383231262571897, 36.47384395834456 ], [ -121.368357317350657, 36.473641472413462 ] ] ] } },
{ "type": "Feature", "properties": { "FACILITYID": "10005251", "NAME": "DEVIL'S GARDEN CONSERVATION CAMP #40", "ADDRESS": "2300 COUNTY ROAD 74", "CITY": "ALTURAS", "STATE": "CA", "ZIP": "96101" }, "geometry": { "type": "Polygon", "coordinates": [ [ [ -120.668257996697648, 41.521816054900803 ], [ -120.668128610259927, 41.525418072628234 ], [ -120.672236507389911, 41.525501338141773 ], [ -120.67236566639869, 41.521899309937915 ], [ -120.668257996697648, 41.521816054900803 ] ] ] } },
{ "type": "Feature", "properties": { "FACILITYID": "10006347", "NAME": "LA CIMA CONSERVATION CAMP #42", "ADDRESS": "15108 SUNRISE HIGHWAY", "CITY": "JULIAN", "STATE": "CA", "ZIP": "92036" }, "geometry": { "type": "Polygon", "coordinates": [ [ [ -116.534773727812663, 32.937290294224056 ], [ -116.534754712492798, 32.940921859075921 ], [ -116.538750378272226, 32.940936672179745 ], [ -116.538769230297007, 32.937305105282078 ], [ -116.534773727812663, 32.937290294224056 ] ] ] } },
{ "type": "Feature", "properties": { "FACILITYID": "10005248", "NAME": "DEADWOOD CONSERVATION CAMP #23", "ADDRESS": "17148 MCADAMS CREEK ROAD", "CITY": "FORT JONES", "STATE": "CA", "ZIP": "96032" }, "geometry": { "type": "Polygon", "coordinates": [ [ [ -122.821263606805303, 41.675855477417045 ], [ -122.821253291923895, 41.679583408234443 ], [ -122.826897535859771, 41.679592047703146 ], [ -122.826907525034542, 41.675864115761478 ], [ -122.821263606805303, 41.675855477417045 ] ] ] } },
{ "type": "Feature", "properties": { "FACILITYID": "10000771", "NAME": "ALDER CONSERVATION CAMP #20", "ADDRESS": "1400 ALDER CAMP ROAD", "CITY": "KLAMATH", "STATE": "CA", "ZIP": "95548" }, "geometry": { "type": "Polygon", "coordinates": [ [ [ -124.058064892936827, 41.499423547320262 ], [ -124.058118942824862, 41.502743699796291 ], [ -124.064491140068739, 41.502684893863503 ], [ -124.064436764831171, 41.499364748208123 ], [ -124.058064892936827, 41.499423547320262 ] ] ] } },
{ "type": "Feature", "properties": { "FACILITYID": "10000902", "NAME": "FRANCISQUITO CONSERVATION CAMP #4", "ADDRESS": "35100 NORTH SAN FRANCISQUITO CANYON ROAD", "CITY": "SANTA CLARITA", "STATE": "CA", "ZIP": "91390" }, "geometry": { "type": "Polygon", "coordinates": [ [ [ -118.47316068216368, 34.563769914477859 ], [ -118.473217960399566, 34.567017358272864 ], [ -118.47837132813946, 34.566955044824866 ], [ -118.478313849719868, 34.563707608544753 ], [ -118.47316068216368, 34.563769914477859 ] ] ] } },
{ "type": "Feature", "properties": { "FACILITYID": "10000905", "NAME": "MALIBU CONSERVATION CAMP #13", "ADDRESS": "1250 SOUTH ENCINAL CANYON ROAD", "CITY": "MALIBU", "STATE": "CA", "ZIP": "90265" }, "geometry": { "type": "Polygon", "coordinates": [ [ [ -118.862189565818809, 34.081714669338268 ], [ -118.862281066171974, 34.085892998574153 ], [ -118.868246743287486, 34.085802405556258 ], [ -118.868154950234768, 34.081624090470996 ], [ -118.862189565818809, 34.081714669338268 ] ] ] } },
{ "type": "Feature", "properties": { "FACILITYID": "10000822", "NAME": "GABILAN CONSERVATION CAMP #38", "ADDRESS": "31801 MCCOY RD", "CITY": "SOLEDAD", "STATE": "CA", "ZIP": "93960" }, "geometry": { "type": "Polygon", "coordinates": [ [ [ -121.379993150852997, 36.461465146175129 ], [ -121.379887711616433, 36.466531879966809 ], [ -121.386054323206338, 36.466615451429377 ], [ -121.386159361536414, 36.461548702271948 ], [ -121.379993150852997, 36.461465146175129 ] ] ] } },
{ "type": "Feature", "properties": { "FACILITYID": "10000858", "NAME": "BAUTISTA CONSERVATION CAMP #36", "ADDRESS": "33015 BAUTISTA CANYON ROAD", "CITY": "HEMET", "STATE": "CA", "ZIP": "92544" }, "geometry": { "type": "Polygon", "coordinates": [ [ [ -116.807043722597768, 33.639602080607801 ], [ -116.80703309264932, 33.644367337707358 ], [ -116.811429046335732, 33.644374120087221 ], [ -116.81143943412826, 33.639608861771713 ], [ -116.807043722597768, 33.639602080607801 ] ] ] } },
{ "type": "Feature", "properties": { "FACILITYID": "10000904", "NAME": "JULIUS KLEIN CONSERVATION CAMP #19", "ADDRESS": "EAST FORK ROAD", "CITY": "AZUSA", "STATE": "CA", "ZIP": "91702" }, "geometry": { "type": "Polygon", "coordinates": [ [ [ -117.819920126307807, 34.23599725196177 ], [ -117.819956891513201, 34.239789298191873 ], [ -117.825668918816419, 34.239750964435324 ], [ -117.82563189756597, 34.235958923627678 ], [ -117.819920126307807, 34.23599725196177 ] ] ] } },
{ "type": "Feature", "properties": { "FACILITYID": "10005290", "NAME": "GROWLERSBURG CONSERVATION CAMP #33", "ADDRESS": "5440 LONGVIEW LANE", "CITY": "GEORGETOWN", "STATE": "CA", "ZIP": "95634" }, "geometry": { "type": "Polygon", "coordinates": [ [ [ -120.867538948131596, 38.900667781079662 ], [ -120.867390976449272, 38.905612076854474 ], [ -120.872636080152986, 38.905707806553437 ], [ -120.872783688572255, 38.900763493985288 ], [ -120.867538948131596, 38.900667781079662 ] ] ] } },
{ "type": "Feature", "properties": { "FACILITYID": "10005252", "NAME": "EEL RIVER CONSERVATION CAMP #31", "ADDRESS": "3850 REDWOOD DRIVE", "CITY": "REDWAY", "STATE": "CA", "ZIP": "95560" }, "geometry": { "type": "Polygon", "coordinates": [ [ [ -123.820227912473598, 40.136448423105527 ], [ -123.82027065191464, 40.140002629030661 ], [ -123.824339041447374, 40.139973738183549 ], [ -123.824296090085014, 40.136419535871063 ], [ -123.820227912473598, 40.136448423105527 ] ] ] } },
{ "type": "Feature", "properties": { "FACILITYID": "10005253", "NAME": "HIGH ROCK CONSERVATION CAMP #32", "ADDRESS": "23322 AVENUE OF THE GIANTS", "CITY": "WEOTT", "STATE": "CA", "ZIP": "95571" }, "geometry": { "type": "Polygon", "coordinates": [ [ [ -123.92915918700696, 40.373083270935297 ], [ -123.929216399180078, 40.377247958631287 ], [ -123.933447844624169, 40.377213878947842 ], [ -123.933390372011488, 40.373049196238249 ], [ -123.92915918700696, 40.373083270935297 ] ] ] } },
{ "type": "Feature", "properties": { "FACILITYID": "10005263", "NAME": "ANTELOPE CONSERVATION CAMP #25", "ADDRESS": "711-045 CENTER ROAD", "CITY": "SUSANVILLE", "STATE": "CA", "ZIP": "96127" }, "geometry": { "type": "Polygon", "coordinates": [ [ [ -120.508316756950478, 40.4001584215249 ], [ -120.508197164305429, 40.403399960044872 ], [ -120.512426120169835, 40.403491073049004 ], [ -120.512545510359331, 40.400249524154155 ], [ -120.508316756950478, 40.4001584215249 ] ] ] } },
{ "type": "Feature", "properties": { "FACILITYID": "10005305", "NAME": "MOUNT BULLION CONSERVATION CAMP #39", "ADDRESS": "5730 MOUNT BULLION ACCESS ROAD", "CITY": "MARIPOSA", "STATE": "CA", "ZIP": "95338" }, "geometry": { "type": "Polygon", "coordinates": [ [ [ -120.045484421151968, 37.533261458638357 ], [ -120.045281308240661, 37.53840502648449 ], [ -120.051926208461765, 37.538571247888761 ], [ -120.052128866205365, 37.533427649352333 ], [ -120.045484421151968, 37.533261458638357 ] ] ] } },
{ "type": "Feature", "properties": { "FACILITYID": "10005264", "NAME": "ISHI CONSERVATION CAMP #18", "ADDRESS": "30500 PLUM CREEK ROAD", "CITY": "PAYNES CREEK", "STATE": "CA", "ZIP": "96075" }, "geometry": { "type": "Polygon", "coordinates": [ [ [ -121.892406287325713, 40.311155798000378 ], [ -121.892343097750867, 40.31502294479094 ], [ -121.897553377052361, 40.315072719666524 ], [ -121.897616269538432, 40.311205566110935 ], [ -121.892406287325713, 40.311155798000378 ] ] ] } },
{ "type": "Feature", "properties": { "FACILITYID": "10005324", "NAME": "MOUNTAIN HOME CONSERVATION CAMP #10", "ADDRESS": "45260 BEAR CREEK RD", "CITY": "SPRINGVILLE", "STATE": "CA", "ZIP": "93265" }, "geometry": { "type": "Polygon", "coordinates": [ [ [ -118.71179944574024, 36.205927176238241 ], [ -118.711887746209499, 36.209980587634284 ], [ -118.716402724236488, 36.209915901640606 ], [ -118.716314191159555, 36.205862499786392 ], [ -118.71179944574024, 36.205927176238241 ] ] ] } },
{ "type": "Feature", "properties": { "FACILITYID": "10006204", "NAME": "HOLTON CONSERVATION CAMP #16", "ADDRESS": "12653 N. LITTLE TUJUNGA CANYON ROAD", "CITY": "SYLMAR", "STATE": "CA", "ZIP": "91342" }, "geometry": { "type": "Polygon", "coordinates": [ [ [ -118.358220222353211, 34.298253939871536 ], [ -118.358281638544966, 34.30206856034475 ], [ -118.362280281008267, 34.3020241533291 ], [ -118.36221868414961, 34.298209539169378 ], [ -118.358220222353211, 34.298253939871536 ] ] ] } },
{ "type": "Feature", "properties": { "FACILITYID": "10000856", "NAME": "NORCO CONSERVATION CAMP #0", "ADDRESS": "3195 WESTERN AVENUE", "CITY": "NORCO", "STATE": "CA", "ZIP": "92860" }, "geometry": { "type": "Polygon", "coordinates": [ [ [ -117.574158885837264, 33.925599649580796 ], [ -117.574176714078916, 33.928256677051422 ], [ -117.57772238033985, 33.928240093419092 ], [ -117.577704442019794, 33.92558306759944 ], [ -117.574158885837264, 33.925599649580796 ] ] ] } },
{ "type": "Feature", "properties": { "FACILITYID": "10000878", "NAME": "MCCAIN VALLEY CONSERVATION CAMP #21", "ADDRESS": "2550 MCCAIN VALLEY ROAD", "CITY": "BOULEVARD", "STATE": "CA", "ZIP": "91905" }, "geometry": { "type": "Polygon", "coordinates": [ [ [ -116.263646094974732, 32.682487114670522 ], [ -116.263615769245106, 32.68618213284752 ], [ -116.269895304029902, 32.686218835445345 ], [ -116.269925371212366, 32.682523812089798 ], [ -116.263646094974732, 32.682487114670522 ] ] ] } },
{ "type": "Feature", "properties": { "FACILITYID": "10000855", "NAME": "CUESTA CONSERVATION CAMP #24", "ADDRESS": "635 N. SANTA ROSA STREET", "CITY": "SAN LUIS OBISPO", "STATE": "CA", "ZIP": "93405" }, "geometry": { "type": "Polygon", "coordinates": [ [ [ -120.73053289512319, 35.327468866496574 ], [ -120.730424474612462, 35.331345764052017 ], [ -120.736144524299419, 35.331453063661577 ], [ -120.736252672125786, 35.327576150809819 ], [ -120.73053289512319, 35.327468866496574 ] ] ] } },
{ "type": "Feature", "properties": { "FACILITYID": "10000774", "NAME": "INTERMOUNTAIN CONSERVATION CAMP #22", "ADDRESS": "651-025 FOOTHILL RD", "CITY": "BIEBER", "STATE": "CA", "ZIP": "96009" }, "geometry": { "type": "Polygon", "coordinates": [ [ [ -121.22213347501544, 41.121002835389163 ], [ -121.222024435435443, 41.125041761755774 ], [ -121.226258898905769, 41.125107054777168 ], [ -121.226367679127094, 41.121068119182162 ], [ -121.22213347501544, 41.121002835389163 ] ] ] } },
{ "type": "Feature", "properties": { "FACILITYID": "10000901", "NAME": "FENNER CANYON CONSERVATION CAMP #41", "ADDRESS": "25900 BIG ROCK CREEK ROAD", "CITY": "VALYERMO", "STATE": "CA", "ZIP": "93563" }, "geometry": { "type": "Polygon", "coordinates": [ [ [ -117.769352785621692, 34.388649278085516 ], [ -117.769379842716532, 34.391606500694934 ], [ -117.776143811453082, 34.391563781111863 ], [ -117.776116516544974, 34.388606563205123 ], [ -117.769352785621692, 34.388649278085516 ] ] ] } },
{ "type": "Feature", "properties": { "FACILITYID": "10000814", "NAME": "BEN LOMOND CONSERVATION CAMP #45", "ADDRESS": "13575 EMPIRE GRADE ROAD", "CITY": "SANTA CRUZ", "STATE": "CA", "ZIP": "95060" }, "geometry": { "type": "Polygon", "coordinates": [ [ [ -122.166591538451968, 37.128497416954843 ], [ -122.166556292278372, 37.131711286209708 ], [ -122.172185420342743, 37.131750731217771 ], [ -122.17222042852805, 37.128536857394209 ], [ -122.166591538451968, 37.128497416954843 ] ] ] } },
{ "type": "Feature", "properties": { "FACILITYID": "10000786", "NAME": "DELTA CONSERVATION CAMP #8", "ADDRESS": "6246 LAMBIE ROAD", "CITY": "SUISUN CITY", "STATE": "CA", "ZIP": "94585" }, "geometry": { "type": "Polygon", "coordinates": [ [ [ -121.842648976929013, 38.214630772559644 ], [ -121.842549113454922, 38.220934241857172 ], [ -121.850559720599321, 38.221012964103608 ], [ -121.850658893299993, 38.214709477102588 ], [ -121.842648976929013, 38.214630772559644 ] ] ] } },
{ "type": "Feature", "properties": { "FACILITYID": "10000789", "NAME": "BASELINE CONSERVATION CAMP #30", "ADDRESS": "16809 PEORIA FLAT ROAD", "CITY": "JAMESTOWN", "STATE": "CA", "ZIP": "95327" }, "geometry": { "type": "Polygon", "coordinates": [ [ [ -120.526760505116272, 37.922056715866056 ], [ -120.52662670392894, 37.926049053763656 ], [ -120.532296975746419, 37.926168165582084 ], [ -120.53243047095097, 37.922175810674872 ], [ -120.526760505116272, 37.922056715866056 ] ] ] } },
{ "type": "Feature", "properties": { "FACILITYID": "10002349", "NAME": "ACTON CONSERVATION CAMP #11", "ADDRESS": "8800 SOLEDAD CANYON ROAD", "CITY": "ACTON", "STATE": "CA", "ZIP": "93510" }, "geometry": { "type": "Polygon", "coordinates": [ [ [ -118.285405023404579, 34.435154857505424 ], [ -118.285477310808105, 34.439874690291504 ], [ -118.289241429864404, 34.439835055992901 ], [ -118.289168930932462, 34.435115230165678 ], [ -118.285405023404579, 34.435154857505424 ] ] ] } },
{ "type": "Feature", "properties": { "FACILITYID": "10001522", "NAME": "SIERRA CONSERVATION CENTER (SCC)", "ADDRESS": "5100 O'BYRNES FERRY ROAD", "CITY": "JAMESTOWN", "STATE": "CA", "ZIP": "95327" }, "geometry": { "type": "Polygon", "coordinates": [ [ [ -120.532722081537671, 37.887389427072684 ], [ -120.532448481363105, 37.895582212754434 ], [ -120.541179204027713, 37.895765018637334 ], [ -120.541451838528715, 37.88757217937242 ], [ -120.532722081537671, 37.887389427072684 ] ] ] } },
{ "type": "Feature", "properties": { "FACILITYID": "10002310", "NAME": "HIGH DESERT STATE PRISON (HDSP)", "ADDRESS": "475-750 RICE CANYON ROAD", "CITY": "SUSANVILLE", "STATE": "CA", "ZIP": "96127" }, "geometry": { "type": "Polygon", "coordinates": [ [ [ -120.505817034513782, 40.404394316567149 ], [ -120.505576940833521, 40.410893975349893 ], [ -120.520820936582382, 40.411222040221787 ], [ -120.52105956667009, 40.404722306542162 ], [ -120.505817034513782, 40.404394316567149 ] ] ] } },
{ "type": "Feature", "properties": { "FACILITYID": "10006531", "NAME": "DEPARTMENT OF STATE HOSPITALS - COALINGA", "ADDRESS": "24511 WEST JAYNE AVENUE", "CITY": "COALINGA", "STATE": "CA", "ZIP": "93210" }, "geometry": { "type": "Polygon", "coordinates": [ [ [ -120.236222486853663, 36.130342918233893 ], [ -120.236027861044789, 36.135889028194789 ], [ -120.244709336645471, 36.13608920169181 ], [ -120.2449033530348, 36.130543051296506 ], [ -120.236222486853663, 36.130342918233893 ] ] ] } },
{ "type": "Feature", "properties": { "FACILITYID": "10006532", "NAME": "DEPARTMENT OF STATE HOSPITALS - ATASCADERO", "ADDRESS": "10333 EL CAMINO REAL", "CITY": "ATASCADERO", "STATE": "CA", "ZIP": "93422" }, "geometry": { "type": "Polygon", "coordinates": [ [ [ -120.630992377725278, 35.46062524187974 ], [ -120.630792141310621, 35.467449840446832 ], [ -120.638002229721323, 35.467591229648448 ], [ -120.638201858150126, 35.460766595660857 ], [ -120.630992377725278, 35.46062524187974 ] ] ] } },
{ "type": "Feature", "properties": { "FACILITYID": "10005328", "NAME": "PILOT ROCK CONSERVATION FIRE CAMP #15", "ADDRESS": "P.O. BOX 10", "CITY": "CRESTLINE", "STATE": "CA", "ZIP": "92325" }, "geometry": { "type": "Polygon", "coordinates": [ [ [ -117.279057021917197, 34.269873257332819 ], [ -117.279069129161627, 34.273537926914983 ], [ -117.283796083754268, 34.273527072182596 ], [ -117.28378377144044, 34.269862404083618 ], [ -117.279057021917197, 34.269873257332819 ] ] ] } },
{ "type": "Feature", "properties": { "FACILITYID": "10002340", "NAME": "DESERT VIEW MODIFIED COMMUNITY CORRECTIONAL FACILITY", "ADDRESS": "10450 RANCHO ROAD", "CITY": "ADELANTO", "STATE": "CA", "ZIP": "92301" }, "geometry": { "type": "Polygon", "coordinates": [ [ [ -117.435305950513325, 34.558217709149012 ], [ -117.435323687273723, 34.561622250908613 ], [ -117.439292795157598, 34.561608033316524 ], [ -117.439274896693092, 34.558203493354604 ], [ -117.435305950513325, 34.558217709149012 ] ] ] } },
{ "type": "Feature", "properties": { "FACILITYID": "10005299", "NAME": "VALLECITO CONSERVATION CAMP #1", "ADDRESS": "3225 SIX MILE ROAD", "CITY": "ANGELS CAMP", "STATE": "CA", "ZIP": "95222" }, "geometry": { "type": "Polygon", "coordinates": [ [ [ -120.486540933374783, 38.104592547723954 ], [ -120.48640000220216, 38.108703078889064 ], [ -120.4912249489754, 38.108806264614188 ], [ -120.491365610317999, 38.104695718301919 ], [ -120.486540933374783, 38.104592547723954 ] ] ] } },
{ "type": "Feature", "properties": { "FACILITYID": "10005256", "NAME": "TRINITY RIVER CONSERVATION CAMP #3", "ADDRESS": "3325 PETTIJOHN ROAD", "CITY": "LEWISTON", "STATE": "CA", "ZIP": "96052" }, "geometry": { "type": "Polygon", "coordinates": [ [ [ -122.801855606602643, 40.788064317536467 ], [ -122.801845165462041, 40.79157673678673 ], [ -122.806062308181211, 40.791583901476429 ], [ -122.806072527116285, 40.788071481344041 ], [ -122.801855606602643, 40.788064317536467 ] ] ] } },
{ "type": "Feature", "properties": { "FACILITYID": "10000877", "NAME": "RAINBOW CONSERVATION CAMP #2", "ADDRESS": "8215 RAINBOW HEIGHTS ROAD", "CITY": "FALLBROOK", "STATE": "CA", "ZIP": "92028" }, "geometry": { "type": "Polygon", "coordinates": [ [ [ -117.116321678804482, 33.426165041908042 ], [ -117.116326494402315, 33.429775318448385 ], [ -117.120368787566562, 33.429771461517461 ], [ -117.120363804629861, 33.426161185502664 ], [ -117.116321678804482, 33.426165041908042 ] ] ] } },
{ "type": "Feature", "properties": { "FACILITYID": "10000782", "NAME": "MULE CREEK STATE PRISON (MCSP)", "ADDRESS": "4001 STATE HIGHWAY 104", "CITY": "IONE", "STATE": "CA", "ZIP": "95640" }, "geometry": { "type": "Polygon", "coordinates": [ [ [ -120.948323868093183, 38.367252994629894 ], [ -120.948135098129356, 38.373935575627677 ], [ -120.958113411310123, 38.37410985903113 ], [ -120.958301264835555, 38.36742723653601 ], [ -120.948323868093183, 38.367252994629894 ] ] ] } },
{ "type": "Feature", "properties": { "FACILITYID": "10000850", "NAME": "GOLDEN STATE MODIFIED COMMUNITY CORRECTIONAL FACILITY", "ADDRESS": "611 FRONTAGE ROAD", "CITY": "MCFARLAND", "STATE": "CA", "ZIP": "93250" }, "geometry": { "type": "Polygon", "coordinates": [ [ [ -119.225851120850663, 35.668349866365318 ], [ -119.225941694220253, 35.671610744397277 ], [ -119.230265704017754, 35.671530691940255 ], [ -119.230174955059823, 35.668269823467419 ], [ -119.225851120850663, 35.668349866365318 ] ] ] } },
{ "type": "Feature", "properties": { "FACILITYID": "10006326", "NAME": "GADSDEN RE-ENTRY CENTER", "ADDRESS": "630 OPPORTUNITY LANE", "CITY": "HAVANA", "STATE": "FL", "ZIP": "32333" }, "geometry": { "type": "Polygon", "coordinates": [ [ [ -84.492722720807649, 30.544083396319017 ], [ -84.492622070548379, 30.547997797610638 ], [ -84.497069734402771, 30.548083399096235 ], [ -84.497170206580407, 30.544168984513007 ], [ -84.492722720807649, 30.544083396319017 ] ] ] } },
{ "type": "Feature", "properties": { "FACILITYID": "10006327", "NAME": "BAKER RE-ENTRY CENTER", "ADDRESS": "17128 US HIGHWAY 90 WEST", "CITY": "SANDERSON", "STATE": "FL", "ZIP": "32087" }, "geometry": { "type": "Polygon", "coordinates": [ [ [ -82.316090529166246, 30.229732265398916 ], [ -82.316140760485951, 30.233502956170891 ], [ -82.319993704769601, 30.233464195656239 ], [ -82.319943326503832, 30.229693510717844 ], [ -82.316090529166246, 30.229732265398916 ] ] ] } },
{ "type": "Feature", "properties": { "FACILITYID": "10005212", "NAME": "FRANKLIN WORK CAMP", "ADDRESS": "1760 HIGHWAY 67", "CITY": "CARRABELLE", "STATE": "FL", "ZIP": "32322" }, "geometry": { "type": "Polygon", "coordinates": [ [ [ -84.643446484245601, 29.880563253435717 ], [ -84.643364282302883, 29.88405698957893 ], [ -84.647156797801941, 29.884124702440445 ], [ -84.647238867755505, 29.880630956787609 ], [ -84.643446484245601, 29.880563253435717 ] ] ] } },
{ "type": "Feature", "properties": { "FACILITYID": "10004572", "NAME": "TAYLOR WORK CAMP", "ADDRESS": "8501 HAMPTON SPRINGS ROAD", "CITY": "PERRY", "STATE": "FL", "ZIP": "32348" }, "geometry": { "type": "Polygon", "coordinates": [ [ [ -83.708652649415924, 30.039287840868578 ], [ -83.708767045026093, 30.043489940608954 ], [ -83.713406294145926, 30.043394251084454 ], [ -83.713291703198479, 30.039192167454825 ], [ -83.708652649415924, 30.039287840868578 ] ] ] } },
{ "type": "Feature", "properties": { "FACILITYID": "10000332", "NAME": "GRACEVILLE WORK CAMP", "ADDRESS": "5230 EZELL RD", "CITY": "GRACEVILLE", "STATE": "FL", "ZIP": "32440" }, "geometry": { "type": "Polygon", "coordinates": [ [ [ -85.490342069569607, 30.946651760486549 ], [ -85.490291226039346, 30.94988496563013 ], [ -85.494118393703772, 30.949929618187976 ], [ -85.494169108462685, 30.946696407361472 ], [ -85.490342069569607, 30.946651760486549 ] ] ] } },
{ "type": "Feature", "properties": { "FACILITYID": "10000361", "NAME": "WALTON WORK CAMP", "ADDRESS": "301 INSTITUTION RD", "CITY": "DEFUNIAK SPRINGS", "STATE": "FL", "ZIP": "32433" }, "geometry": { "type": "Polygon", "coordinates": [ [ [ -86.105513657874695, 30.777468085585415 ], [ -86.105484440079707, 30.780625535271337 ], [ -86.109231696438982, 30.780651332852997 ], [ -86.109260791875897, 30.777493879950431 ], [ -86.105513657874695, 30.777468085585415 ] ] ] } },
{ "type": "Feature", "properties": { "FACILITYID": "10000357", "NAME": "HOLMES WORK CAMP", "ADDRESS": "3182 THOMAS DR", "CITY": "BONIFAY", "STATE": "FL", "ZIP": "32425" }, "geometry": { "type": "Polygon", "coordinates": [ [ [ -85.667485784538812, 30.745576112848301 ], [ -85.667440145674334, 30.748890718895744 ], [ -85.67112756663343, 30.748928544028757 ], [ -85.6711730792981, 30.745613933027258 ], [ -85.667485784538812, 30.745576112848301 ] ] ] } },
{ "type": "Feature", "properties": { "FACILITYID": "10000391", "NAME": "LIBERTY WORK CAMP, SOUTH UNIT", "ADDRESS": "11064 NW DEMPSEY BARRON RD", "CITY": "BRISTOL", "STATE": "FL", "ZIP": "32321" }, "geometry": { "type": "Polygon", "coordinates": [ [ [ -84.85408535339792, 30.461996772952531 ], [ -84.854006020378492, 30.46561419326466 ], [ -84.857697325491046, 30.4656748929503 ], [ -84.85777652230513, 30.462057463914146 ], [ -84.85408535339792, 30.461996772952531 ] ] ] } },
{ "type": "Feature", "properties": { "FACILITYID": "10004558", "NAME": "OKALOOSA WORK CAMP", "ADDRESS": "3189 COLONEL GREG MALLOY RD", "CITY": "CRESTVIEW", "STATE": "FL", "ZIP": "32539" }, "geometry": { "type": "Polygon", "coordinates": [ [ [ -86.522535161160619, 30.694876364098022 ], [ -86.522520464601854, 30.697861699466817 ], [ -86.526047347643356, 30.697874618308312 ], [ -86.526061935656529, 30.694889281414095 ], [ -86.522535161160619, 30.694876364098022 ] ] ] } },
{ "type": "Feature", "properties": { "FACILITYID": "10000403", "NAME": "BAKER WORK CAMP", "ADDRESS": "20706 US HIGHWAY 90 WEST", "CITY": "SANDERSON", "STATE": "FL", "ZIP": "32087" }, "geometry": { "type": "Polygon", "coordinates": [ [ [ -82.378179191496585, 30.209988480410189 ], [ -82.378223049923506, 30.213134951781559 ], [ -82.381912204282258, 30.213096108158993 ], [ -82.381868228548385, 30.209949641667951 ], [ -82.378179191496585, 30.209988480410189 ] ] ] } },
{ "type": "Feature", "properties": { "FACILITYID": "10000382", "NAME": "MADISON WORK CAMP", "ADDRESS": "382 SW MCI WAY", "CITY": "MADISON", "STATE": "FL", "ZIP": "32340" }, "geometry": { "type": "Polygon", "coordinates": [ [ [ -83.421237283809091, 30.442986001399809 ], [ -83.421311856045136, 30.446001633466192 ], [ -83.424752694168589, 30.445937709031657 ], [ -83.424678016213647, 30.44292208462733 ], [ -83.421237283809091, 30.442986001399809 ] ] ] } },
{ "type": "Feature", "properties": { "FACILITYID": "10000410", "NAME": "MAYO WORK CAMP", "ADDRESS": "8976 US 27 W", "CITY": "MAYO", "STATE": "FL", "ZIP": "32066" }, "geometry": { "type": "Polygon", "coordinates": [ [ [ -83.307693965833153, 30.131239822919618 ], [ -83.307770644926748, 30.134534386713852 ], [ -83.311510388961111, 30.134468566868552 ], [ -83.311433585878518, 30.131174011746808 ], [ -83.307693965833153, 30.131239822919618 ] ] ] } },
{ "type": "Feature", "properties": { "FACILITYID": "10000420", "NAME": "RMC WORK CAMP", "ADDRESS": "P.O. BOX 628", "CITY": "LAKE BUTLER", "STATE": "FL", "ZIP": "32054" }, "geometry": { "type": "Polygon", "coordinates": [ [ [ -82.352701961847004, 29.991942084591095 ], [ -82.352745354322991, 29.995141789932678 ], [ -82.356894800986893, 29.995099084919921 ], [ -82.356851275507069, 29.991899385058655 ], [ -82.352701961847004, 29.991942084591095 ] ] ] } },
{ "type": "Feature", "properties": { "FACILITYID": "10000416", "NAME": "NEW RIVER CORRECTIONAL INSTITUTION", "ADDRESS": "8000 NW 80TH PLACE", "CITY": "RAIFORD", "STATE": "FL", "ZIP": "32083" }, "geometry": { "type": "Polygon", "coordinates": [ [ [ -82.175469125303039, 30.060148426877188 ], [ -82.175535607201411, 30.065774261788004 ], [ -82.181154092113715, 30.065723901027869 ], [ -82.181087292644051, 30.060098077463547 ], [ -82.175469125303039, 30.060148426877188 ] ] ] } },
{ "type": "Feature", "properties": { "FACILITYID": "10000503", "NAME": "DESOTO WORK CAMP", "ADDRESS": "13617 SE HWY 70", "CITY": "ARCADIA", "STATE": "FL", "ZIP": "34266" }, "geometry": { "type": "Polygon", "coordinates": [ [ [ -81.660499920696779, 27.204455266003137 ], [ -81.660517880442924, 27.207501884397974 ], [ -81.664015201059897, 27.207485358319296 ], [ -81.663997146237165, 27.204438742075897 ], [ -81.660499920696779, 27.204455266003137 ] ] ] } },
{ "type": "Feature", "properties": { "FACILITYID": "10000518", "NAME": "LOXAHATCHEE ROAD PRISON", "ADDRESS": "230 SUNSHINE RD", "CITY": "WEST PALM BEACH", "STATE": "FL", "ZIP": "33411" }, "geometry": { "type": "Polygon", "coordinates": [ [ [ -80.192180644292051, 26.681497964503091 ], [ -80.192155628412138, 26.685047012864686 ], [ -80.195540276539631, 26.685066225446896 ], [ -80.195565187637428, 26.681517174132292 ], [ -80.192180644292051, 26.681497964503091 ] ] ] } },
{ "type": "Feature", "properties": { "FACILITYID": "10000457", "NAME": "SUMTER WORK CAMP", "ADDRESS": "9858 COUNTY RD 476B", "CITY": "BUSHNELL", "STATE": "FL", "ZIP": "33513" }, "geometry": { "type": "Polygon", "coordinates": [ [ [ -82.203800221859879, 28.612022741572236 ], [ -82.203833939297866, 28.614979313371922 ], [ -82.207158439196164, 28.614949748745101 ], [ -82.207124628699361, 28.611993180556805 ], [ -82.203800221859879, 28.612022741572236 ] ] ] } },
{ "type": "Feature", "properties": { "FACILITYID": "10000455", "NAME": "SUMTER CORRECTIONAL INSTITUTION AND BASIC TRAINING UNIT", "ADDRESS": "9544 COUNTY RD 476B", "CITY": "BUSHNELL", "STATE": "FL", "ZIP": "33513" }, "geometry": { "type": "Polygon", "coordinates": [ [ [ -82.203845180133115, 28.613900610806549 ], [ -82.203928204751307, 28.62117912345445 ], [ -82.211209496899883, 28.621114250919565 ], [ -82.211125970451619, 28.613835757776304 ], [ -82.203845180133115, 28.613900610806549 ] ] ] } },
{ "type": "Feature", "properties": { "FACILITYID": "10000479", "NAME": "LARGO ROAD PRISON", "ADDRESS": "5201 ULMERTON RD", "CITY": "CLEARWATER", "STATE": "FL", "ZIP": "33760" }, "geometry": { "type": "Polygon", "coordinates": [ [ [ -82.703900490372206, 27.894270341556517 ], [ -82.703948494252543, 27.897334650513663 ], [ -82.706910545487986, 27.897297989545901 ], [ -82.70686245825901, 27.894233685308464 ], [ -82.703900490372206, 27.894270341556517 ] ] ] } },
{ "type": "Feature", "properties": { "FACILITYID": "10000838", "NAME": "OAK GLEN CONSERVATION CAMP #35", "ADDRESS": "41100 PINEBENCH ROAD", "CITY": "YUCAIPA", "STATE": "CA", "ZIP": "92399" }, "geometry": { "type": "Polygon", "coordinates": [ [ [ -116.903651690912668, 34.030967940932648 ], [ -116.90364648743379, 34.035570871130695 ], [ -116.908439177437032, 34.035574533361697 ], [ -116.908444122092192, 34.030971602533036 ], [ -116.903651690912668, 34.030967940932648 ] ] ] } },
{ "type": "Feature", "properties": { "FACILITYID": "10000851", "NAME": "CENTRAL VALLEY MODIFIED COMMUNITY CORRECTIONAL FACILITY", "ADDRESS": "254 TAYLOR AVENUE", "CITY": "MCFARLAND", "STATE": "CA", "ZIP": "93250" }, "geometry": { "type": "Polygon", "coordinates": [ [ [ -119.226516215975465, 35.666560567522779 ], [ -119.226607647024423, 35.669851555111293 ], [ -119.230939969713091, 35.669771326254896 ], [ -119.230848361125652, 35.66648034833522 ], [ -119.226516215975465, 35.666560567522779 ] ] ] } },
{ "type": "Feature", "properties": { "FACILITYID": "10000508", "NAME": "MARTIN CORRECTIONAL INSTITUTION", "ADDRESS": "1150 SW ALLAPATTAH ROAD", "CITY": "INDIANTOWN", "STATE": "FL", "ZIP": "34956" }, "geometry": { "type": "Polygon", "coordinates": [ [ [ -80.481983005461686, 27.193381950035086 ], [ -80.481953206416861, 27.199829949776881 ], [ -80.487757937656724, 27.199851281317354 ], [ -80.487787402838066, 27.193403275697172 ], [ -80.481983005461686, 27.193381950035086 ] ] ] } },
{ "type": "Feature", "properties": { "FACILITYID": "10000337", "NAME": "APALACHEE CORRECTIONAL INSTITUTION, EAST UNIT", "ADDRESS": "35 APALACHEE DR", "CITY": "SNEADS", "STATE": "FL", "ZIP": "32460" }, "geometry": { "type": "Polygon", "coordinates": [ [ [ -84.872289596320982, 30.705227016695222 ], [ -84.872129018067554, 30.712539669956019 ], [ -84.880996426346172, 30.712684758452308 ], [ -84.88115633665025, 30.705372063240528 ], [ -84.872289596320982, 30.705227016695222 ] ] ] } },
{ "type": "Feature", "properties": { "FACILITYID": "10000388", "NAME": "CALHOUN CORRECTIONAL INSTITUTION", "ADDRESS": "19562 SE INSTITUTION DR", "CITY": "BLOUNTSTOWN", "STATE": "FL", "ZIP": "32424" }, "geometry": { "type": "Polygon", "coordinates": [ [ [ -85.063700584574079, 30.406350930869376 ], [ -85.063617242405883, 30.410572262675078 ], [ -85.071284200073322, 30.410685764961546 ], [ -85.071367212754339, 30.406464414098931 ], [ -85.063700584574079, 30.406350930869376 ] ] ] } },
{ "type": "Feature", "properties": { "FACILITYID": "10002174", "NAME": "CENTRAL FLORIDA RECEPTION CENTER, EAST", "ADDRESS": "7000 H C KELLEY RD", "CITY": "ORLANDO", "STATE": "FL", "ZIP": "32831" }, "geometry": { "type": "Polygon", "coordinates": [ [ [ -81.145858968906708, 28.460102925787844 ], [ -81.145867519506766, 28.466330650466521 ], [ -81.152652681245002, 28.466323205412316 ], [ -81.152643732909596, 28.460095482655717 ], [ -81.145858968906708, 28.460102925787844 ] ] ] } },
{ "type": "Feature", "properties": { "FACILITYID": "10002177", "NAME": "AVON PARK CORRECTIONAL INSTITUTION", "ADDRESS": "8100 HIGHWAY 64 EAST", "CITY": "AVON PARK", "STATE": "FL", "ZIP": "33825" }, "geometry": { "type": "Polygon", "coordinates": [ [ [ -81.355793899771157, 27.658459619524489 ], [ -81.3558130403988, 27.664371082345902 ], [ -81.364258563585238, 27.664349143493212 ], [ -81.364238968662832, 27.658437686151043 ], [ -81.355793899771157, 27.658459619524489 ] ] ] } },
{ "type": "Feature", "properties": { "FACILITYID": "10000345", "NAME": "PENSACOLA COMMUNITY RELEASE CENTER", "ADDRESS": "3050 NORTH L. ST", "CITY": "PENSACOLA", "STATE": "FL", "ZIP": "32501" }, "geometry": { "type": "Polygon", "coordinates": [ [ [ -87.233993999864197, 30.442372213357167 ], [ -87.233999148888586, 30.444528159588632 ], [ -87.236579647236638, 30.444523507180243 ], [ -87.23657444143106, 30.442367561347467 ], [ -87.233993999864197, 30.442372213357167 ] ] ] } },
{ "type": "Feature", "properties": { "FACILITYID": "10000374", "NAME": "TALLAHASSEE COMMUNITY RELEASE CENTER", "ADDRESS": "2616A SPRINGHILL RD", "CITY": "TALLAHASSEE", "STATE": "FL", "ZIP": "32305" }, "geometry": { "type": "Polygon", "coordinates": [ [ [ -84.304631420858215, 30.407118898723301 ], [ -84.304562743269145, 30.409616957374954 ], [ -84.30761637063172, 30.409679994892283 ], [ -84.307684970646122, 30.407181929977138 ], [ -84.304631420858215, 30.407118898723301 ] ] ] } },
{ "type": "Feature", "properties": { "FACILITYID": "10004569", "NAME": "BRIDGES OF JACKSONVILLE", "ADDRESS": "601 AGMAC AVENUE", "CITY": "JACKSONVILLE", "STATE": "FL", "ZIP": "32254" }, "geometry": { "type": "Polygon", "coordinates": [ [ [ -81.746726318542613, 30.329498167989406 ], [ -81.746745909644261, 30.33208015343029 ], [ -81.74980176653537, 30.332062669492029 ], [ -81.749782095280679, 30.329480685849489 ], [ -81.746726318542613, 30.329498167989406 ] ] ] } },
{ "type": "Feature", "properties": { "FACILITYID": "10004567", "NAME": "BRIDGES OF LAKE CITY", "ADDRESS": "1099 N.W. DOT GLN", "CITY": "LAKE CITY", "STATE": "FL", "ZIP": "32055" }, "geometry": { "type": "Polygon", "coordinates": [ [ [ -82.652251532089579, 30.193579935808106 ], [ -82.652296586428832, 30.196277622643205 ], [ -82.656130192578217, 30.196229251734 ], [ -82.656085033821668, 30.193531570111212 ], [ -82.652251532089579, 30.193579935808106 ] ] ] } },
{ "type": "Feature", "properties": { "FACILITYID": "10000450", "NAME": "SMA WORK RELEASE", "ADDRESS": "3601 US HWY 92 WEST", "CITY": "DAYTONA BEACH", "STATE": "FL", "ZIP": "32124" }, "geometry": { "type": "Polygon", "coordinates": [ [ [ -81.124870174996815, 29.137929992071886 ], [ -81.124873625390848, 29.14078438507671 ], [ -81.128110544061954, 29.140781330034617 ], [ -81.128107004228923, 29.137926937385885 ], [ -81.124870174996815, 29.137929992071886 ] ] ] } },
{ "type": "Feature", "properties": { "FACILITYID": "10006330", "NAME": "TOMOKA CRC 285", "ADDRESS": "1200 RED JOHN ROAD", "CITY": "DAYTONA BEACH", "STATE": "FL", "ZIP": "32124" }, "geometry": { "type": "Polygon", "coordinates": [ [ [ -81.148643695724047, 29.132761139007538 ], [ -81.148648366594585, 29.136007844225553 ], [ -81.151950462777606, 29.136004141472036 ], [ -81.151945688148643, 29.132757436744985 ], [ -81.148643695724047, 29.132761139007538 ] ] ] } },
{ "type": "Feature", "properties": { "FACILITYID": "10000400", "NAME": "TTH OF DINSMORE", "ADDRESS": "13200 OLD KINGS RD", "CITY": "JACKSONVILLE", "STATE": "FL", "ZIP": "32219" }, "geometry": { "type": "Polygon", "coordinates": [ [ [ -81.785241603950567, 30.473212363788612 ], [ -81.785260143457165, 30.47552256323678 ], [ -81.787896650390607, 30.475506662112764 ], [ -81.787878048653383, 30.473196464123838 ], [ -81.785241603950567, 30.473212363788612 ] ] ] } },
{ "type": "Feature", "properties": { "FACILITYID": "10001454", "NAME": "BRIDGES OF COCOA", "ADDRESS": "585 CAMP RD", "CITY": "COCOA", "STATE": "FL", "ZIP": "32927" }, "geometry": { "type": "Polygon", "coordinates": [ [ [ -80.773310589244147, 28.445162882827312 ], [ -80.773305788431387, 28.447414337972869 ], [ -80.775807350906035, 28.447418482053166 ], [ -80.775812098743089, 28.445167026520636 ], [ -80.773310589244147, 28.445162882827312 ] ] ] } },
{ "type": "Feature", "properties": { "FACILITYID": "10004639", "NAME": "BRIDGES OF POMPANO - TURNING POINT WORK RELEASE", "ADDRESS": "400 SOUTHWEST 2ND STREET", "CITY": "POMPANO BEACH", "STATE": "FL", "ZIP": "33060" }, "geometry": { "type": "Polygon", "coordinates": [ [ [ -80.128819342642615, 26.22783269833856 ], [ -80.12879736207104, 26.230782435626278 ], [ -80.132059274845787, 26.230802171244406 ], [ -80.132081173144044, 26.227852431404855 ], [ -80.128819342642615, 26.22783269833856 ] ] ] } },
{ "type": "Feature", "properties": { "FACILITYID": "10004606", "NAME": "KISSIMMEE COMMUNITY RELEASE CENTER", "ADDRESS": "2925 MICHIGAN AVE", "CITY": "KISSIMMEE", "STATE": "FL", "ZIP": "34744" }, "geometry": { "type": "Polygon", "coordinates": [ [ [ -81.386969790501709, 28.333542277447663 ], [ -81.386980999641139, 28.336636051995882 ], [ -81.391349215205167, 28.336623591748037 ], [ -81.391337879545532, 28.333529818802688 ], [ -81.386969790501709, 28.333542277447663 ] ] ] } },
{ "type": "Feature", "properties": { "FACILITYID": "10004650", "NAME": "OPA LOCKA COMMUNITY RELEASE CENTER", "ADDRESS": "5400 NORTHWEST 135TH STREET", "CITY": "OPA LOCKA", "STATE": "FL", "ZIP": "33054" }, "geometry": { "type": "Polygon", "coordinates": [ [ [ -80.286849116231082, 25.89592474260159 ], [ -80.286830065328218, 25.899094186650935 ], [ -80.291484808476341, 25.899117002360281 ], [ -80.29150373506252, 25.89594755511219 ], [ -80.286849116231082, 25.89592474260159 ] ] ] } },
{ "type": "Feature", "properties": { "FACILITYID": "10000480", "NAME": "ST. PETERSBURG COMMUNITY RELEASE CENTER", "ADDRESS": "4237 8TH AVE S", "CITY": "ST PETERSBURG", "STATE": "FL", "ZIP": "33711" }, "geometry": { "type": "Polygon", "coordinates": [ [ [ -82.689303916498517, 27.761091511985693 ], [ -82.689339476400676, 27.763394092067067 ], [ -82.691928934966143, 27.763362421747285 ], [ -82.691893320620295, 27.761059844739528 ], [ -82.689303916498517, 27.761091511985693 ] ] ] } },
{ "type": "Feature", "properties": { "FACILITYID": "10004611", "NAME": "SUNCOAST COMMUNITY RELEASE CENTER", "ADDRESS": "10596 GANDY BOULEVARD", "CITY": "SAINT PETERSBURG", "STATE": "FL", "ZIP": "33702" }, "geometry": { "type": "Polygon", "coordinates": [ [ [ -82.623857261222142, 27.864039114166086 ], [ -82.623893969689448, 27.866501142883585 ], [ -82.626682347638905, 27.866468278091201 ], [ -82.626645576207423, 27.864006252775635 ], [ -82.623857261222142, 27.864039114166086 ] ] ] } },
{ "type": "Feature", "properties": { "FACILITYID": "10002178", "NAME": "TTH OF BARTOW", "ADDRESS": "550 N RESTWOOD AVE", "CITY": "BARTOW", "STATE": "FL", "ZIP": "33830" }, "geometry": { "type": "Polygon", "coordinates": [ [ [ -81.820578244230177, 27.900628363543465 ], [ -81.820599762697825, 27.903480543493401 ], [ -81.823595691905609, 27.903462670551963 ], [ -81.823574094897737, 27.900610492743375 ], [ -81.820578244230177, 27.900628363543465 ] ] ] } },
{ "type": "Feature", "properties": { "FACILITYID": "10006324", "NAME": "TTH OF KISSIMMEE", "ADDRESS": "900 EAST VINE STREET", "CITY": "KISSIMMEE", "STATE": "FL", "ZIP": "34744" }, "geometry": { "type": "Polygon", "coordinates": [ [ [ -81.394501395386044, 28.30188698506652 ], [ -81.39451237297105, 28.304862955983022 ], [ -81.396961508289323, 28.304855857057834 ], [ -81.39695046255973, 28.301879887020409 ], [ -81.394501395386044, 28.30188698506652 ] ] ] } },
{ "type": "Feature", "properties": { "FACILITYID": "10004612", "NAME": "TTH OF TARPON SPRINGS", "ADDRESS": "566 BRADY ROAD", "CITY": "TARPON SPRINGS", "STATE": "FL", "ZIP": "34689" }, "geometry": { "type": "Polygon", "coordinates": [ [ [ -82.767249038195189, 28.166521752456102 ], [ -82.767292751094629, 28.169181379733637 ], [ -82.769952163398486, 28.169147026348231 ], [ -82.769908384803756, 28.166487402884613 ], [ -82.767249038195189, 28.166521752456102 ] ] ] } },
{ "type": "Feature", "properties": { "FACILITYID": "10001459", "NAME": "WEST PALM BEACH COMMUNITY RELEASE CENTER", "ADDRESS": "261 WEST FAIRGROUNDS RD", "CITY": "WEST PALM BEACH", "STATE": "FL", "ZIP": "33411" }, "geometry": { "type": "Polygon", "coordinates": [ [ [ -80.191640932845544, 26.682377216743205 ], [ -80.191623619825592, 26.684831782401353 ], [ -80.19420916074435, 26.684846475818869 ], [ -80.194226418404313, 26.682391908598763 ], [ -80.191640932845544, 26.682377216743205 ] ] ] } },
{ "type": "Feature", "properties": { "FACILITYID": "10000424", "NAME": "NORTH FLORIDA EVALUATION & TREATMENT CENTER", "ADDRESS": "1200 NE 55TH BLVD", "CITY": "GAINESVILLE", "STATE": "FL", "ZIP": "32641" }, "geometry": { "type": "Polygon", "coordinates": [ [ [ -82.267105559436899, 29.662097123128135 ], [ -82.267162056440995, 29.666604403573064 ], [ -82.27282422073317, 29.666550143494156 ], [ -82.27276747144461, 29.662042872924523 ], [ -82.267105559436899, 29.662097123128135 ] ] ] } },
{ "type": "Feature", "properties": { "FACILITYID": "10006332", "NAME": "OKEECHOBEE CORRECTIONAL INSTITUTION WORK CAMP", "ADDRESS": "3420 N.E. 168TH ST.", "CITY": "OKEECHOBEE", "STATE": "FL", "ZIP": "34972" }, "geometry": { "type": "Polygon", "coordinates": [ [ [ -80.782190850755057, 27.399682527927741 ], [ -80.782184529740903, 27.402907143741839 ], [ -80.786307496773091, 27.402913521222629 ], [ -80.786313698140788, 27.399688904534059 ], [ -80.782190850755057, 27.399682527927741 ] ] ] } },
{ "type": "Feature", "properties": { "FACILITYID": "10006537", "NAME": "FLORIDA CIVIL COMMITMENT CENTER", "ADDRESS": "13619 SE HIGHWAY 70", "CITY": "ARCADIA", "STATE": "FL", "ZIP": "34266" }, "geometry": { "type": "Polygon", "coordinates": [ [ [ -81.653964913883939, 27.201679446635335 ], [ -81.653987563443522, 27.205560403214392 ], [ -81.658772947679722, 27.205537992664262 ], [ -81.658750132416969, 27.201657039801837 ], [ -81.653964913883939, 27.201679446635335 ] ] ] } },
{ "type": "Feature", "properties": { "FACILITYID": "10006536", "NAME": "SOUTH FLORIDA EVALUATION & TREATMENT CENTER", "ADDRESS": "18680 SW 376TH ST", "CITY": "FLORIDA CITY", "STATE": "FL", "ZIP": "33034" }, "geometry": { "type": "Polygon", "coordinates": [ [ [ -80.489166918377194, 25.417800099242712 ], [ -80.489152897755986, 25.421127085948246 ], [ -80.493710951125692, 25.421142858435349 ], [ -80.493724846660442, 25.417815869377133 ], [ -80.489166918377194, 25.417800099242712 ] ] ] } },
{ "type": "Feature", "properties": { "FACILITYID": "10006538", "NAME": "FLORIDA STATE HOSPITAL-FORENSIC SERVICE", "ADDRESS": "HIGHWAY 90", "CITY": "CHATTAHOOCHEE", "STATE": "FL", "ZIP": "32324" }, "geometry": { "type": "Polygon", "coordinates": [ [ [ -84.826623144175628, 30.702184593462647 ], [ -84.826510658493319, 30.707200297565542 ], [ -84.832025652169563, 30.707292536233062 ], [ -84.832137852977368, 30.702276813835127 ], [ -84.826623144175628, 30.702184593462647 ] ] ] } },
{ "type": "Feature", "properties": { "FACILITYID": "10000385", "NAME": "HAMILTON CORRECTIONAL INSTITUTION", "ADDRESS": "10650 SW 46TH ST", "CITY": "JASPER", "STATE": "FL", "ZIP": "32052" }, "geometry": { "type": "Polygon", "coordinates": [ [ [ -82.958892381851996, 30.499357960333253 ], [ -82.959008180883643, 30.505133771892957 ], [ -82.964164114530419, 30.505056153778945 ], [ -82.964048011203147, 30.499280360016847 ], [ -82.958892381851996, 30.499357960333253 ] ] ] } },
{ "type": "Feature", "properties": { "FACILITYID": "10005261", "NAME": "HERLONG FCI CAMP", "ADDRESS": "741-925 ACCESS RD A-25", "CITY": "HERLONG", "STATE": "CA", "ZIP": "96113" }, "geometry": { "type": "Polygon", "coordinates": [ [ [ -120.151860506345287, 40.151091286223249 ], [ -120.151706821765345, 40.154767150814479 ], [ -120.156106237279459, 40.154875373076869 ], [ -120.156259685262128, 40.15119949449106 ], [ -120.151860506345287, 40.151091286223249 ] ] ] } },
{ "type": "Feature", "properties": { "FACILITYID": "10000773", "NAME": "CALIFORNIA CORRECTIONAL CENTER (CCC)", "ADDRESS": "711-045 CENTER ROAD", "CITY": "SUSANVILLE", "STATE": "CA", "ZIP": "96127" }, "geometry": { "type": "Polygon", "coordinates": [ [ [ -120.511341232533255, 40.399253139218985 ], [ -120.511145783373152, 40.404557097414077 ], [ -120.522456270669068, 40.404800147954688 ], [ -120.522650833839435, 40.399496144476835 ], [ -120.511341232533255, 40.399253139218985 ] ] ] } },
{ "type": "Feature", "properties": { "FACILITYID": "10000799", "NAME": "CALIFORNIA HEALTH CARE FACILITY (CHCF)", "ADDRESS": "7707 AUSTIN ROAD", "CITY": "STOCKTON", "STATE": "CA", "ZIP": "95215" }, "geometry": { "type": "Polygon", "coordinates": [ [ [ -121.185836611740399, 37.894487110776417 ], [ -121.185674064927142, 37.901107222988898 ], [ -121.19536528399901, 37.901256252287965 ], [ -121.195526963720397, 37.894636104779039 ], [ -121.185836611740399, 37.894487110776417 ] ] ] } },
{ "type": "Feature", "properties": { "FACILITYID": "10001530", "NAME": "CALIFORNIA CORRECTIONAL INSTITUTION (CCI)", "ADDRESS": "24900 HWY 202", "CITY": "TEHACHAPI", "STATE": "CA", "ZIP": "93561" }, "geometry": { "type": "Polygon", "coordinates": [ [ [ -118.563126623702445, 35.099404695530019 ], [ -118.563484200707819, 35.118125035763121 ], [ -118.578139948247184, 35.117935069612848 ], [ -118.577779022770017, 35.099214860471776 ], [ -118.563126623702445, 35.099404695530019 ] ] ] } },
{ "type": "Feature", "properties": { "FACILITYID": "10000428", "NAME": "LANCASTER CORRECTIONAL INSTITUTION", "ADDRESS": "3449 SW STATE RD 26", "CITY": "TRENTON", "STATE": "FL", "ZIP": "32693" }, "geometry": { "type": "Polygon", "coordinates": [ [ [ -82.859027412533266, 29.605186656122758 ], [ -82.85914287743617, 29.611478386953376 ], [ -82.868081730307736, 29.61135280639628 ], [ -82.867965711028873, 29.605061107506124 ], [ -82.859027412533266, 29.605186656122758 ] ] ] } },
{ "type": "Feature", "properties": { "FACILITYID": "10000384", "NAME": "HAMILTON CORRECTIONAL INSTITUTION ANNEX", "ADDRESS": "10650 SW 46TH ST", "CITY": "JASPER", "STATE": "FL", "ZIP": "32052" }, "geometry": { "type": "Polygon", "coordinates": [ [ [ -82.963086594269001, 30.501592266208817 ], [ -82.963167989636233, 30.505643228109747 ], [ -82.971776123487828, 30.505513249755229 ], [ -82.971694371779236, 30.501462308757723 ], [ -82.963086594269001, 30.501592266208817 ] ] ] } },
{ "type": "Feature", "properties": { "FACILITYID": "10000394", "NAME": "LAKE CITY CORRECTIONAL FACILITY", "ADDRESS": "7906 EAST HIGHWAY 90", "CITY": "LAKE CITY", "STATE": "FL", "ZIP": "32055" }, "geometry": { "type": "Polygon", "coordinates": [ [ [ -82.50551459788565, 30.190578198613427 ], [ -82.505572147587245, 30.194360450628345 ], [ -82.510201425530283, 30.194307211599753 ], [ -82.510143699040668, 30.190524967628335 ], [ -82.50551459788565, 30.190578198613427 ] ] ] } },
{ "type": "Feature", "properties": { "FACILITYID": "10000414", "NAME": "LAWTEY CORRECTIONAL INSTITUTION", "ADDRESS": "22298 NE COUNTY ROAD 200B", "CITY": "LAWTEY", "STATE": "FL", "ZIP": "32058" }, "geometry": { "type": "Polygon", "coordinates": [ [ [ -82.069049144579793, 30.031278017094202 ], [ -82.069103191820531, 30.036312953030635 ], [ -82.075680085141059, 30.03625933526483 ], [ -82.075625705569067, 30.031224410146415 ], [ -82.069049144579793, 30.031278017094202 ] ] ] } },
{ "type": "Feature", "properties": { "FACILITYID": "10000381", "NAME": "MADISON CORRECTIONAL INSTITUTION", "ADDRESS": "382 SW MCI WAY", "CITY": "MADISON", "STATE": "FL", "ZIP": "32340" }, "geometry": { "type": "Polygon", "coordinates": [ [ [ -83.418461711961072, 30.436548674732588 ], [ -83.418639276723212, 30.443738579191901 ], [ -83.424758263646993, 30.443624967349766 ], [ -83.424580250730301, 30.436435095357897 ], [ -83.418461711961072, 30.436548674732588 ] ] ] } },
{ "type": "Feature", "properties": { "FACILITYID": "10006323", "NAME": "MAYO CORRECTIONAL", "ADDRESS": "8784 US HIGHWAY 27 W", "CITY": "MAYO", "STATE": "FL", "ZIP": "32066" }, "geometry": { "type": "Polygon", "coordinates": [ [ [ -83.301106044479866, 30.130408629394559 ], [ -83.301216351558622, 30.135161607985467 ], [ -83.308674160887605, 30.135030615423656 ], [ -83.308563497097268, 30.130277661732208 ], [ -83.301106044479866, 30.130408629394559 ] ] ] } },
{ "type": "Feature", "properties": { "FACILITYID": "10000430", "NAME": "PUTNAM CORRECTIONAL INSTITUTION", "ADDRESS": "128 YELVINGTON RD", "CITY": "EAST PALATKA", "STATE": "FL", "ZIP": "32131" }, "geometry": { "type": "Polygon", "coordinates": [ [ [ -81.585921988221429, 29.644001515897376 ], [ -81.585945128110723, 29.647997329075615 ], [ -81.589811562556918, 29.647980186670821 ], [ -81.589788269997612, 29.643984376259546 ], [ -81.585921988221429, 29.644001515897376 ] ] ] } },
{ "type": "Feature", "properties": { "FACILITYID": "10000418", "NAME": "RECEPTION AND MEDICAL CENTER (RMC)", "ADDRESS": "7765 S COUNTY RD 231", "CITY": "LAKE BUTLER", "STATE": "FL", "ZIP": "32054" }, "geometry": { "type": "Polygon", "coordinates": [ [ [ -82.355944710205407, 29.986112648250128 ], [ -82.356038370840992, 29.99300352194005 ], [ -82.362169563666967, 29.992940224448489 ], [ -82.362075479872544, 29.986049368252182 ], [ -82.355944710205407, 29.986112648250128 ] ] ] } },
{ "type": "Feature", "properties": { "FACILITYID": "10000419", "NAME": "RECEPTION AND MEDICAL CENTER, WEST UNIT", "ADDRESS": "8183 SW 152ND LOOP", "CITY": "LAKE BUTLER", "STATE": "FL", "ZIP": "32054" }, "geometry": { "type": "Polygon", "coordinates": [ [ [ -82.365212188082623, 29.988797393298103 ], [ -82.365296770499427, 29.994977537928438 ], [ -82.370217482710345, 29.994926411659367 ], [ -82.370132595679252, 29.988746279701111 ], [ -82.365212188082623, 29.988797393298103 ] ] ] } },
{ "type": "Feature", "properties": { "FACILITYID": "10006206", "NAME": "SUWANNEE CORRECTIONAL INSTITUTION", "ADDRESS": "5964 U.S. HIGHWAY 90", "CITY": "LIVE OAK", "STATE": "FL", "ZIP": "32060" }, "geometry": { "type": "Polygon", "coordinates": [ [ [ -82.861351084803744, 30.235707634733206 ], [ -82.861431866858297, 30.239993429653968 ], [ -82.869802747076704, 30.239874199583433 ], [ -82.869721602259105, 30.235588425055788 ], [ -82.861351084803744, 30.235707634733206 ] ] ] } },
{ "type": "Feature", "properties": { "FACILITYID": "10000444", "NAME": "TOMOKA CORRECTIONAL INSTITUTION", "ADDRESS": "3950 TIGER BAY RD", "CITY": "DAYTONA BEACH", "STATE": "FL", "ZIP": "32124" }, "geometry": { "type": "Polygon", "coordinates": [ [ [ -81.153565322457055, 29.147726176336914 ], [ -81.153576736184377, 29.155399960886179 ], [ -81.160946440553033, 29.155391310581987 ], [ -81.160934479119504, 29.147717528742401 ], [ -81.153565322457055, 29.147726176336914 ] ] ] } },
{ "type": "Feature", "properties": { "FACILITYID": "10006207", "NAME": "SUWANNEE CORRECTIONAL INSTITUTION ANNEX", "ADDRESS": "5964 U.S. HIGHWAY 90", "CITY": "LIVE OAK", "STATE": "FL", "ZIP": "32060" }, "geometry": { "type": "Polygon", "coordinates": [ [ [ -82.861366535555192, 30.23312077267045 ], [ -82.861448472550293, 30.237468251009346 ], [ -82.86980977438192, 30.237349162526826 ], [ -82.869727469861701, 30.233001704851009 ], [ -82.861366535555192, 30.23312077267045 ] ] ] } },
{ "type": "Feature", "properties": { "FACILITYID": "10004574", "NAME": "TAYLOR CORRECTIONAL INSTITUTION", "ADDRESS": "8501 HAMPTON SPRINGS ROAD", "CITY": "PERRY", "STATE": "FL", "ZIP": "32348" }, "geometry": { "type": "Polygon", "coordinates": [ [ [ -83.709245517751, 30.034505992903973 ], [ -83.709439696554796, 30.041638059439467 ], [ -83.716586257354706, 30.041490554543508 ], [ -83.716391567908531, 30.034358530159221 ], [ -83.709245517751, 30.034505992903973 ] ] ] } },
{ "type": "Feature", "properties": { "FACILITYID": "10000460", "NAME": "CENTRAL FLORIDA RECEPTION CENTER, SOUTH", "ADDRESS": "7000 H C KELLEY RD", "CITY": "ORLANDO", "STATE": "FL", "ZIP": "32831" }, "geometry": { "type": "Polygon", "coordinates": [ [ [ -81.156896957871098, 28.451847748552908 ], [ -81.156901347490631, 28.454821221808583 ], [ -81.160746572046364, 28.454816733438669 ], [ -81.160742074850305, 28.45184326073641 ], [ -81.156896957871098, 28.451847748552908 ] ] ] } },
{ "type": "Feature", "properties": { "FACILITYID": "10002175", "NAME": "CENTRAL FLORIDA RECEPTION CENTER, MAIN", "ADDRESS": "7000 H C KELLEY RD", "CITY": "ORLANDO", "STATE": "FL", "ZIP": "32831" }, "geometry": { "type": "Polygon", "coordinates": [ [ [ -81.153529170031661, 28.460289852672066 ], [ -81.153538170155116, 28.466517442841774 ], [ -81.158409340789404, 28.466511857487333 ], [ -81.158400055129817, 28.460284268759551 ], [ -81.153529170031661, 28.460289852672066 ] ] ] } },
{ "type": "Feature", "properties": { "FACILITYID": "10000504", "NAME": "DESOTO ANNEX", "ADDRESS": "13617 SE HWY 70", "CITY": "ARCADIA", "STATE": "FL", "ZIP": "34266" }, "geometry": { "type": "Polygon", "coordinates": [ [ [ -81.662829877585054, 27.199337154801768 ], [ -81.662873424663459, 27.206699130737722 ], [ -81.667548517711424, 27.206676941484542 ], [ -81.667504663560933, 27.199314972528818 ], [ -81.662829877585054, 27.199337154801768 ] ] ] } },
{ "type": "Feature", "properties": { "FACILITYID": "10006167", "NAME": "FLORIDA WOMEN'S RECEPTION CENTER", "ADDRESS": "3700 NW 111TH PLACE", "CITY": "OCALA", "STATE": "FL", "ZIP": "34482" }, "geometry": { "type": "Polygon", "coordinates": [ [ [ -82.182995205198097, 29.30769633015694 ], [ -82.183044205190129, 29.311944601399755 ], [ -82.18955097475795, 29.311886787992801 ], [ -82.189501705419318, 29.307638526742203 ], [ -82.182995205198097, 29.30769633015694 ] ] ] } },
{ "type": "Feature", "properties": { "FACILITYID": "10000494", "NAME": "HARDEE CORRECTIONAL INSTITUTION", "ADDRESS": "6901 STATE ROAD 62", "CITY": "BOWLING GREEN", "STATE": "FL", "ZIP": "33834" }, "geometry": { "type": "Polygon", "coordinates": [ [ [ -82.012402386088297, 27.587596338076033 ], [ -82.012459031734494, 27.593762545133636 ], [ -82.017276333424192, 27.59372732786499 ], [ -82.017219418369834, 27.587561129997773 ], [ -82.012402386088297, 27.587596338076033 ] ] ] } },
{ "type": "Feature", "properties": { "FACILITYID": "10000465", "NAME": "HERNANDO CORRECTIONAL INSTITUTION", "ADDRESS": "16415 SPRING HILL DR", "CITY": "BROOKSVILLE", "STATE": "FL", "ZIP": "34604" }, "geometry": { "type": "Polygon", "coordinates": [ [ [ -82.452396142450723, 28.480594475112543 ], [ -82.452463217710147, 28.485495571365796 ], [ -82.456470588089374, 28.485452695912237 ], [ -82.456403327927418, 28.480551608366394 ], [ -82.452396142450723, 28.480594475112543 ] ] ] } },
{ "type": "Feature", "properties": { "FACILITYID": "10000453", "NAME": "LAKE CORRECTIONAL INSTITUTION", "ADDRESS": "19225 US HWY 27", "CITY": "CLERMONT", "STATE": "FL", "ZIP": "34715" }, "geometry": { "type": "Polygon", "coordinates": [ [ [ -81.763483767241382, 28.617661603874183 ], [ -81.763525061224428, 28.62336957137353 ], [ -81.769323222623328, 28.623336785818335 ], [ -81.769281615131476, 28.617628826049053 ], [ -81.763483767241382, 28.617661603874183 ] ] ] } },
{ "type": "Feature", "properties": { "FACILITYID": "10000437", "NAME": "LOWELL CORRECTIONAL INSTITUTION", "ADDRESS": "11120 NW GAINESVILLE RD", "CITY": "OCALA", "STATE": "FL", "ZIP": "34482" }, "geometry": { "type": "Polygon", "coordinates": [ [ [ -82.197217392968312, 29.307488046280366 ], [ -82.197289484192041, 29.313663794076316 ], [ -82.203703927921509, 29.313606116527993 ], [ -82.203631450697813, 29.307430383222897 ], [ -82.197217392968312, 29.307488046280366 ] ] ] } },
{ "type": "Feature", "properties": { "FACILITYID": "10000440", "NAME": "MARION CORRECTIONAL INSTITUTION", "ADDRESS": "3269 NW 105TH ST", "CITY": "OCALA", "STATE": "FL", "ZIP": "34475" }, "geometry": { "type": "Polygon", "coordinates": [ [ [ -82.171524664487137, 29.305039802422328 ], [ -82.171601824767606, 29.311795379320056 ], [ -82.178490916034804, 29.311734749837676 ], [ -82.178413302302289, 29.304979189603177 ], [ -82.171524664487137, 29.305039802422328 ] ] ] } },
{ "type": "Feature", "properties": { "FACILITYID": "10000473", "NAME": "POLK CORRECTIONAL INSTITUTION", "ADDRESS": "10800 EVANS RD", "CITY": "POLK CITY", "STATE": "FL", "ZIP": "33868" }, "geometry": { "type": "Polygon", "coordinates": [ [ [ -81.783575710304447, 28.187411857941409 ], [ -81.783633342278222, 28.195314344401766 ], [ -81.789766156241157, 28.195279093684341 ], [ -81.789708073346063, 28.187376618844532 ], [ -81.783575710304447, 28.187411857941409 ] ] ] } },
{ "type": "Feature", "properties": { "FACILITYID": "10000467", "NAME": "ZEPHYRHILLS CORRECTIONAL INSTITUTION", "ADDRESS": "2739 GALL BLVD", "CITY": "ZEPHYRHILLS", "STATE": "FL", "ZIP": "33541" }, "geometry": { "type": "Polygon", "coordinates": [ [ [ -82.195515440810397, 28.19610240642611 ], [ -82.195576317648602, 28.201571436179183 ], [ -82.201465707290126, 28.20151985226655 ], [ -82.201404530748988, 28.196050834280463 ], [ -82.195515440810397, 28.19610240642611 ] ] ] } },
{ "type": "Feature", "properties": { "FACILITYID": "10002187", "NAME": "CHARLOTTE CORRECTIONAL INSTITUTION", "ADDRESS": "33123 OIL WELL RD", "CITY": "PUNTA GORDA", "STATE": "FL", "ZIP": "33955" }, "geometry": { "type": "Polygon", "coordinates": [ [ [ -81.900313409705021, 26.801418834501103 ], [ -81.900348279184115, 26.805834318919356 ], [ -81.907316444231995, 26.805789833351433 ], [ -81.90728130497358, 26.801374357413142 ], [ -81.900313409705021, 26.801418834501103 ] ] ] } },
{ "type": "Feature", "properties": { "FACILITYID": "10000546", "NAME": "DADE CORRECTIONAL INSTITUTION", "ADDRESS": "19000 SW 377TH ST", "CITY": "FLORIDA CITY", "STATE": "FL", "ZIP": "33034" }, "geometry": { "type": "Polygon", "coordinates": [ [ [ -80.49370066650215, 25.414440591629937 ], [ -80.493681712974819, 25.418978936580288 ], [ -80.50191642873196, 25.419007073150521 ], [ -80.501935074032119, 25.414468722474819 ], [ -80.49370066650215, 25.414440591629937 ] ] ] } },
{ "type": "Feature", "properties": { "FACILITYID": "10004646", "NAME": "EVERGLADES CORRECTIONAL INSTITUTION", "ADDRESS": "1599 S.W. 187TH AVE.", "CITY": "MIAMI", "STATE": "FL", "ZIP": "33194" }, "geometry": { "type": "Polygon", "coordinates": [ [ [ -80.485195225973214, 25.747788695970165 ], [ -80.485168979614727, 25.753877364264419 ], [ -80.492699111170523, 25.753903794297418 ], [ -80.49272497367933, 25.747815118856099 ], [ -80.485195225973214, 25.747788695970165 ] ] ] } },
{ "type": "Feature", "properties": { "FACILITYID": "10000512", "NAME": "SOUTH BAY CORRECTIONAL FACILITY", "ADDRESS": "600 US HWY 27 S", "CITY": "SOUTH BAY", "STATE": "FL", "ZIP": "33493" }, "geometry": { "type": "Polygon", "coordinates": [ [ [ -80.716717706741207, 26.655390369625497 ], [ -80.71670609408848, 26.660093957812499 ], [ -80.72186498097274, 26.660104147714389 ], [ -80.721876382161469, 26.655400557450339 ], [ -80.716717706741207, 26.655390369625497 ] ] ] } },
{ "type": "Feature", "properties": { "FACILITYID": "10000545", "NAME": "HOMESTEAD CORRECTIONAL INSTITUTION", "ADDRESS": "19000 SW 377TH ST", "CITY": "FLORIDA CITY", "STATE": "FL", "ZIP": "33034" }, "geometry": { "type": "Polygon", "coordinates": [ [ [ -80.494541863731953, 25.410631248122034 ], [ -80.494521555890856, 25.415502764807581 ], [ -80.50011204974561, 25.415521882996615 ], [ -80.500132133008847, 25.410650362134824 ], [ -80.494541863731953, 25.410631248122034 ] ] ] } },
{ "type": "Feature", "properties": { "FACILITYID": "10000510", "NAME": "MOORE HAVEN CORRECTIONAL FACILITY", "ADDRESS": "1282 EAST STATE ROAD 78", "CITY": "MOORE HAVEN", "STATE": "FL", "ZIP": "33471" }, "geometry": { "type": "Polygon", "coordinates": [ [ [ -81.118005110935741, 26.836394605912478 ], [ -81.118009339940372, 26.840474449511088 ], [ -81.122352131313221, 26.840470760022939 ], [ -81.122347746680447, 26.836390917073583 ], [ -81.118005110935741, 26.836394605912478 ] ] ] } },
{ "type": "Feature", "properties": { "FACILITYID": "10000495", "NAME": "OKEECHOBEE CORRECTIONAL INSTITUTION", "ADDRESS": "3420 NE 168TH ST", "CITY": "OKEECHOBEE", "STATE": "FL", "ZIP": "34972" }, "geometry": { "type": "Polygon", "coordinates": [ [ [ -80.781762958838712, 27.392252924118594 ], [ -80.781747979645274, 27.399881015695119 ], [ -80.787126150522838, 27.39988932676486 ], [ -80.787140760605567, 27.39226123249243 ], [ -80.781762958838712, 27.392252924118594 ] ] ] } },
{ "type": "Feature", "properties": { "FACILITYID": "10000547", "NAME": "SOUTH FLORIDA RECEPTION CENTER", "ADDRESS": "14000 NW 41ST ST", "CITY": "DORAL", "STATE": "FL", "ZIP": "33178" }, "geometry": { "type": "Polygon", "coordinates": [ [ [ -80.422631247549731, 25.803438033232393 ], [ -80.422606791651205, 25.808484132205436 ], [ -80.429927922670203, 25.808513023288313 ], [ -80.429952068518233, 25.803466917850276 ], [ -80.422631247549731, 25.803438033232393 ] ] ] } },
{ "type": "Feature", "properties": { "FACILITYID": "10000548", "NAME": "SOUTH FLORIDA RECEPTION CENTER, SOUTH UNIT", "ADDRESS": "13910 NW 41ST ST", "CITY": "DORAL", "STATE": "FL", "ZIP": "33178" }, "geometry": { "type": "Polygon", "coordinates": [ [ [ -80.422721470592862, 25.797110671734714 ], [ -80.42270143177295, 25.801247288350751 ], [ -80.429462948667506, 25.80127397433845 ], [ -80.429482752817165, 25.797137352826105 ], [ -80.422721470592862, 25.797110671734714 ] ] ] } },
{ "type": "Feature", "properties": { "FACILITYID": "10000790", "NAME": "SAN QUENTIN STATE PRISON (SQ)", "ADDRESS": "MAIN STREET", "CITY": "SAN QUENTIN", "STATE": "CA", "ZIP": "94964" }, "geometry": { "type": "Polygon", "coordinates": [ [ [ -122.486486625853374, 37.936342326297179 ], [ -122.486437684164002, 37.94337570723161 ], [ -122.495130964652304, 37.943413329945962 ], [ -122.495179077972068, 37.936379939548246 ], [ -122.486486625853374, 37.936342326297179 ] ] ] } },
{ "type": "Feature", "properties": { "FACILITYID": "10000817", "NAME": "CORRECTIONAL TRAINING FACILITY (CTF)", "ADDRESS": "SOLEDAD PRISON ROAD", "CITY": "SOLEDAD", "STATE": "CA", "ZIP": "93960" }, "geometry": { "type": "Polygon", "coordinates": [ [ [ -121.377111597038777, 36.460280476230892 ], [ -121.376815814998295, 36.474466029340114 ], [ -121.38809719347087, 36.47461897899376 ], [ -121.388390921957736, 36.460433347166379 ], [ -121.377111597038777, 36.460280476230892 ] ] ] } },
{ "type": "Feature", "properties": { "FACILITYID": "10005273", "NAME": "CHAMBERLAIN CREEK CONSERVATION CAMP #17", "ADDRESS": "15800 STATE HIGHWAY 20", "CITY": "FORT BRAGG", "STATE": "CA", "ZIP": "95437" }, "geometry": { "type": "Polygon", "coordinates": [ [ [ -123.554245085412546, 39.355451881196061 ], [ -123.554279244523329, 39.359774452692605 ], [ -123.558509454729531, 39.359754228092925 ], [ -123.558475034952338, 39.355431659687831 ], [ -123.554245085412546, 39.355451881196061 ] ] ] } },
{ "type": "Feature", "properties": { "FACILITYID": "10000780", "NAME": "FOLSOM STATE PRISON (FSP)", "ADDRESS": "300 PRISON ROAD", "CITY": "REPRESA", "STATE": "CA", "ZIP": "95671" }, "geometry": { "type": "Polygon", "coordinates": [ [ [ -121.1578149321642, 38.691146719639747 ], [ -121.157579120094397, 38.700336555978396 ], [ -121.167115399138908, 38.70048646682384 ], [ -121.167349992327004, 38.691296581530445 ], [ -121.1578149321642, 38.691146719639747 ] ] ] } },
{ "type": "Feature", "properties": { "FACILITYID": "10000857", "NAME": "CALIFORNIA REHABILITATION CENTER (CRC)", "ADDRESS": "5TH STREET AND WESTERN AVENUE", "CITY": "NORCO", "STATE": "CA", "ZIP": "92860" }, "geometry": { "type": "Polygon", "coordinates": [ [ [ -117.566915247437393, 33.926352431639728 ], [ -117.566952419621828, 33.931962599395092 ], [ -117.577677392920037, 33.931912751016249 ], [ -117.577639517648095, 33.926302593738235 ], [ -117.566915247437393, 33.926352431639728 ] ] ] } },
{ "type": "Feature", "properties": { "FACILITYID": "10000861", "NAME": "IRONWOOD STATE PRISON (ISP)", "ADDRESS": "19005 WILEY'S WELL ROAD", "CITY": "BLYTHE", "STATE": "CA", "ZIP": "92225" }, "geometry": { "type": "Polygon", "coordinates": [ [ [ -114.917015884197824, 33.557616935742494 ], [ -114.916828072273276, 33.565436434222029 ], [ -114.932932252908813, 33.565706515913128 ], [ -114.933118615463428, 33.55788693788768 ], [ -114.917015884197824, 33.557616935742494 ] ] ] } },
{ "type": "Feature", "properties": { "FACILITYID": "10006170", "NAME": "TREASURE COAST FORENSIC TREATMENT CENTER", "ADDRESS": "96 SW ALLAPATTAH ROAD", "CITY": "INDIANTOWN", "STATE": "FL", "ZIP": "34956" }, "geometry": { "type": "Polygon", "coordinates": [ [ [ -80.493596973265014, 27.202612919571266 ], [ -80.493580371247859, 27.20628650870335 ], [ -80.498121732413551, 27.206302843933894 ], [ -80.498138185565992, 27.202629252237518 ], [ -80.493596973265014, 27.202612919571266 ] ] ] } },
{ "type": "Feature", "properties": { "FACILITYID": "10000407", "NAME": "WAKULLA WORK CAMP", "ADDRESS": "110 MELALEUCA DR", "CITY": "CRAWFORDVILLE", "STATE": "FL", "ZIP": "32327" }, "geometry": { "type": "Polygon", "coordinates": [ [ [ -84.173274994998707, 30.255825391287345 ], [ -84.173179856612506, 30.259144903315182 ], [ -84.177431395627309, 30.259236667843606 ], [ -84.177526391388966, 30.25591714366357 ], [ -84.173274994998707, 30.255825391287345 ] ] ] } },
{ "type": "Feature", "properties": { "FACILITYID": "10000402", "NAME": "BAKER CORRECTIONAL INSTITUTION", "ADDRESS": "20706 US HIGHWAY 90 W", "CITY": "SANDERSON", "STATE": "FL", "ZIP": "32087" }, "geometry": { "type": "Polygon", "coordinates": [ [ [ -82.370303477502731, 30.210992677260663 ], [ -82.370367380506849, 30.215603180648479 ], [ -82.378725225610907, 30.215515527714494 ], [ -82.378660933163573, 30.210905040462528 ], [ -82.370303477502731, 30.210992677260663 ] ] ] } },
{ "type": "Feature", "properties": { "FACILITYID": "10005282", "NAME": "KONOCTI CONSERVATION CAMP #27", "ADDRESS": "8275 SOUTH STATE HIGHWAY 29", "CITY": "LOWER LAKE", "STATE": "CA", "ZIP": "95457" }, "geometry": { "type": "Polygon", "coordinates": [ [ [ -122.705275687893746, 38.908820450656556 ], [ -122.705260742269516, 38.912434473019715 ], [ -122.710135255551236, 38.912446677037934 ], [ -122.710149954007377, 38.90883265310994 ], [ -122.705275687893746, 38.908820450656556 ] ] ] } },
{ "type": "Feature", "properties": { "FACILITYID": "10000772", "NAME": "HERLONG FCI", "ADDRESS": "741-925 ACCESS RD A-25", "CITY": "HERLONG", "STATE": "CA", "ZIP": "96113" }, "geometry": { "type": "Polygon", "coordinates": [ [ [ -120.163093435511371, 40.147493695933747 ], [ -120.162792116392509, 40.154729580676722 ], [ -120.169290081142591, 40.154888743000811 ], [ -120.169590712409729, 40.147652817744891 ], [ -120.163093435511371, 40.147493695933747 ] ] ] } },
{ "type": "Feature", "properties": { "FACILITYID": "10002348", "NAME": "CENTINELA STATE PRISON (CEN)", "ADDRESS": "2302 BROWN ROAD", "CITY": "IMPERIAL", "STATE": "CA", "ZIP": "92251" }, "geometry": { "type": "Polygon", "coordinates": [ [ [ -115.782809423584609, 32.820255282480687 ], [ -115.782722085466318, 32.826658004396663 ], [ -115.795324606693057, 32.826779936719795 ], [ -115.795411041132482, 32.820377185060771 ], [ -115.782809423584609, 32.820255282480687 ] ] ] } },
{ "type": "Feature", "properties": { "FACILITYID": "10005283", "NAME": "WASHINGTON RIDGE CONSERVATION CAMP #44", "ADDRESS": "11425 CONSERVATION CAMP ROAD", "CITY": "NEVADA CITY", "STATE": "CA", "ZIP": "95959" }, "geometry": { "type": "Polygon", "coordinates": [ [ [ -120.932213680635073, 39.305812506158276 ], [ -120.932099630371454, 39.309686211873782 ], [ -120.937455887490216, 39.309781270112708 ], [ -120.937569642853092, 39.305907551371106 ], [ -120.932213680635073, 39.305812506158276 ] ] ] } },
{ "type": "Feature", "properties": { "FACILITYID": "10000887", "NAME": "FCI TERMINAL ISLAND", "ADDRESS": "1299 SEASIDE AVENUE", "CITY": "SAN PEDRO", "STATE": "CA", "ZIP": "90731" }, "geometry": { "type": "Polygon", "coordinates": [ [ [ -118.264363437398586, 33.722958725014472 ], [ -118.264467916411817, 33.730082386697447 ], [ -118.269702784116305, 33.730028666181568 ], [ -118.269597872845026, 33.722905018877711 ], [ -118.264363437398586, 33.722958725014472 ] ] ] } },
{ "type": "Feature", "properties": { "FACILITYID": "10000806", "NAME": "USP ATWATER", "ADDRESS": "1 FEDERAL WAY", "CITY": "ATWATER", "STATE": "CA", "ZIP": "95301" }, "geometry": { "type": "Polygon", "coordinates": [ [ [ -120.554449522358013, 37.382350762810646 ], [ -120.554224707472926, 37.389268143811137 ], [ -120.563169071576468, 37.389452908195786 ], [ -120.56339306628567, 37.382535481252631 ], [ -120.554449522358013, 37.382350762810646 ] ] ] } },
{ "type": "Feature", "properties": { "FACILITYID": "10000871", "NAME": "MCC SAN DIEGO", "ADDRESS": "808 UNION STREET", "CITY": "SAN DIEGO", "STATE": "CA", "ZIP": "92101" }, "geometry": { "type": "Polygon", "coordinates": [ [ [ -117.164862938423482, 32.712874639553746 ], [ -117.164866769995825, 32.714957586276384 ], [ -117.167322751614776, 32.714954333328492 ], [ -117.167318862965033, 32.712871386864464 ], [ -117.164862938423482, 32.712874639553746 ] ] ] } },
{ "type": "Feature", "properties": { "FACILITYID": "10000336", "NAME": "APALACHEE CORRECTIONAL INSTITUTION, WEST UNIT", "ADDRESS": "52 WEST UNIT DR", "CITY": "SNEADS", "STATE": "FL", "ZIP": "32460" }, "geometry": { "type": "Polygon", "coordinates": [ [ [ -84.885706752476295, 30.708738887509696 ], [ -84.88557081737352, 30.714967921912233 ], [ -84.890811413718609, 30.715053202395943 ], [ -84.890947012516961, 30.708824146990047 ], [ -84.885706752476295, 30.708738887509696 ] ] ] } },
{ "type": "Feature", "properties": { "FACILITYID": "10001445", "NAME": "BAY CORRECTIONAL FACILITY", "ADDRESS": "5400 BAYLINE DR", "CITY": "PANAMA CITY", "STATE": "FL", "ZIP": "32404" }, "geometry": { "type": "Polygon", "coordinates": [ [ [ -85.503495144780885, 30.263627220350315 ], [ -85.503435024860408, 30.267590509101478 ], [ -85.50770280443929, 30.267639222727944 ], [ -85.507762753070097, 30.263675926275983 ], [ -85.503495144780885, 30.263627220350315 ] ] ] } },
{ "type": "Feature", "properties": { "FACILITYID": "10002153", "NAME": "CENTURY CORRECTIONAL INSTITUTION", "ADDRESS": "400 TEDDER RD", "CITY": "CENTURY", "STATE": "FL", "ZIP": "32535" }, "geometry": { "type": "Polygon", "coordinates": [ [ [ -87.289737892698511, 30.95555918721648 ], [ -87.289759700391002, 30.962783250444911 ], [ -87.29638827517357, 30.962768217989517 ], [ -87.296365968623505, 30.955544159034542 ], [ -87.289737892698511, 30.95555918721648 ] ] ] } },
{ "type": "Feature", "properties": { "FACILITYID": "10006205", "NAME": "BLACKWATER RIVER CORRECTIONAL FACILITY", "ADDRESS": "5914 JEFF ATES ROAD", "CITY": "MILTON", "STATE": "FL", "ZIP": "32583" }, "geometry": { "type": "Polygon", "coordinates": [ [ [ -86.947567849156144, 30.643366892425842 ], [ -86.947565347351713, 30.648004124048054 ], [ -86.953640657930848, 30.648006432564042 ], [ -86.953642869865448, 30.643369200518002 ], [ -86.947567849156144, 30.643366892425842 ] ] ] } },
{ "type": "Feature", "properties": { "FACILITYID": "10000422", "NAME": "FRANKLIN CORRECTIONAL INSTITUTION", "ADDRESS": "1760 HWY 67 NORTH", "CITY": "CARRABELLE", "STATE": "FL", "ZIP": "32322" }, "geometry": { "type": "Polygon", "coordinates": [ [ [ -84.64351909740158, 29.874788599769918 ], [ -84.643371198039077, 29.881075819993015 ], [ -84.648184441250763, 29.881161733205381 ], [ -84.648332039219071, 29.874874491268493 ], [ -84.64351909740158, 29.874788599769918 ] ] ] } },
{ "type": "Feature", "properties": { "FACILITYID": "10000412", "NAME": "GULF CORRECTIONAL INSTITUTION", "ADDRESS": "500 IKE STEELE ROAD", "CITY": "WEWAHITCHKA", "STATE": "FL", "ZIP": "32465" }, "geometry": { "type": "Polygon", "coordinates": [ [ [ -85.258213172268171, 30.171557298999243 ], [ -85.258088715654182, 30.178631504693858 ], [ -85.263102341625682, 30.178698001347325 ], [ -85.263226440464194, 30.171623776856677 ], [ -85.258213172268171, 30.171557298999243 ] ] ] } },
{ "type": "Feature", "properties": { "FACILITYID": "10000411", "NAME": "GULF CORRECTIONAL INSTITUTION ANNEX", "ADDRESS": "699 IKE STEELE ROAD", "CITY": "WEWAHITCHKA", "STATE": "FL", "ZIP": "32465" }, "geometry": { "type": "Polygon", "coordinates": [ [ [ -85.262928351976569, 30.172405364025327 ], [ -85.262835045214231, 30.177723448151756 ], [ -85.271575651978779, 30.177838933622674 ], [ -85.271668489836031, 30.172520824955541 ], [ -85.262928351976569, 30.172405364025327 ] ] ] } },
{ "type": "Feature", "properties": { "FACILITYID": "10000369", "NAME": "GADSDEN CORRECTIONAL FACILITY", "ADDRESS": "6044 GREENSBORO HWY", "CITY": "QUINCY", "STATE": "FL", "ZIP": "32351" }, "geometry": { "type": "Polygon", "coordinates": [ [ [ -84.651290037652686, 30.587866181896626 ], [ -84.651201350409906, 30.591542065013019 ], [ -84.659629411770567, 30.591693992337692 ], [ -84.659717781491452, 30.588018087087175 ], [ -84.651290037652686, 30.587866181896626 ] ] ] } },
{ "type": "Feature", "properties": { "FACILITYID": "10000333", "NAME": "GRACEVILLE CORRECTIONAL FACILITY", "ADDRESS": "5168 EZELL RD", "CITY": "GRACEVILLE", "STATE": "FL", "ZIP": "32440" }, "geometry": { "type": "Polygon", "coordinates": [ [ [ -85.486061446918157, 30.94198043941865 ], [ -85.485992844324898, 30.946331309942398 ], [ -85.49229654738005, 30.94640500138167 ], [ -85.49236486460461, 30.942054118236499 ], [ -85.486061446918157, 30.94198043941865 ] ] ] } },
{ "type": "Feature", "properties": { "FACILITYID": "10000334", "NAME": "JACKSON CORRECTIONAL INSTITUTION", "ADDRESS": "5563 10TH ST", "CITY": "MALONE", "STATE": "FL", "ZIP": "32445" }, "geometry": { "type": "Polygon", "coordinates": [ [ [ -85.164619421262913, 30.966533534898723 ], [ -85.164537585626505, 30.970810049724427 ], [ -85.172589562382484, 30.970924215946727 ], [ -85.172671039502831, 30.966647681910338 ], [ -85.164619421262913, 30.966533534898723 ] ] ] } },
{ "type": "Feature", "properties": { "FACILITYID": "10000392", "NAME": "LIBERTY CORRECTIONAL INSTITUTION", "ADDRESS": "11064 NW DEMPSEY BARRON RD", "CITY": "BRISTOL", "STATE": "FL", "ZIP": "32321" }, "geometry": { "type": "Polygon", "coordinates": [ [ [ -84.857795286846383, 30.463596931237458 ], [ -84.857681500870683, 30.46879378914926 ], [ -84.865962913389382, 30.468929597266683 ], [ -84.866076260325897, 30.46373271131576 ], [ -84.857795286846383, 30.463596931237458 ] ] ] } },
{ "type": "Feature", "properties": { "FACILITYID": "10000365", "NAME": "NORTHWEST FLORIDA RECEPTION CENTER", "ADDRESS": "4455 SAM MITCHELL DR", "CITY": "CHIPLEY", "STATE": "FL", "ZIP": "32428" }, "geometry": { "type": "Polygon", "coordinates": [ [ [ -85.657319019579361, 30.517228392466716 ], [ -85.657223024591502, 30.52421009771194 ], [ -85.662064195382996, 30.524259904365188 ], [ -85.662159844528162, 30.517278185320322 ], [ -85.657319019579361, 30.517228392466716 ] ] ] } },
{ "type": "Feature", "properties": { "FACILITYID": "10000368", "NAME": "NORTHWEST FLORIDA RECEPTION CENTER ANNEX", "ADDRESS": "4455 SAM MITCHELL DR", "CITY": "CHIPLEY", "STATE": "FL", "ZIP": "32428" }, "geometry": { "type": "Polygon", "coordinates": [ [ [ -85.654496332521802, 30.51719456856387 ], [ -85.65439903283891, 30.524256308237732 ], [ -85.65910616033635, 30.524304840369101 ], [ -85.659203119898365, 30.517243087094609 ], [ -85.654496332521802, 30.51719456856387 ] ] ] } },
{ "type": "Feature", "properties": { "FACILITYID": "10004576", "NAME": "WAKULLA CORRECTIONAL INSTITUTION ANNEX", "ADDRESS": "110 MELALEUCA DRIVE", "CITY": "CRAWFORDVILLE", "STATE": "FL", "ZIP": "32327" }, "geometry": { "type": "Polygon", "coordinates": [ [ [ -84.173811076279591, 30.261010360487198 ], [ -84.173687085969021, 30.265336367218541 ], [ -84.180396678111322, 30.26548111446931 ], [ -84.180520375024287, 30.261155082760684 ], [ -84.173811076279591, 30.261010360487198 ] ] ] } },
{ "type": "Feature", "properties": { "FACILITYID": "10004557", "NAME": "OKALOOSA CORRECTIONAL INSTITUTION", "ADDRESS": "3189 COLONEL GREG MALLOY RD", "CITY": "CRESTVIEW", "STATE": "FL", "ZIP": "32539" }, "geometry": { "type": "Polygon", "coordinates": [ [ [ -86.52443053427406, 30.694545667944581 ], [ -86.524408538553018, 30.699031392114509 ], [ -86.530240215099411, 30.699052617267242 ], [ -86.530261941134455, 30.694566889331632 ], [ -86.52443053427406, 30.694545667944581 ] ] ] } },
{ "type": "Feature", "properties": { "FACILITYID": "10000339", "NAME": "SANTA ROSA CORRECTIONAL INSTITUTION", "ADDRESS": "5850 E MILTON RD", "CITY": "MILTON", "STATE": "FL", "ZIP": "32583" }, "geometry": { "type": "Polygon", "coordinates": [ [ [ -86.962990050184857, 30.643182640495752 ], [ -86.962988174531688, 30.648107992314667 ], [ -86.97184959771991, 30.648110213240482 ], [ -86.971851024301728, 30.643184860988484 ], [ -86.962990050184857, 30.643182640495752 ] ] ] } },
{ "type": "Feature", "properties": { "FACILITYID": "10004555", "NAME": "SANTA ROSA CORRECTIONAL INSTITUTION ANNEX", "ADDRESS": "5850 EAST MILTON ROAD", "CITY": "MILTON", "STATE": "FL", "ZIP": "32583" }, "geometry": { "type": "Polygon", "coordinates": [ [ [ -86.962844057330685, 30.646228438471351 ], [ -86.962842450825519, 30.650430013899168 ], [ -86.971715565583054, 30.650432247401316 ], [ -86.971716788459588, 30.646230671601987 ], [ -86.962844057330685, 30.646228438471351 ] ] ] } },
{ "type": "Feature", "properties": { "FACILITYID": "10004575", "NAME": "WAKULLA CORRECTIONAL INSTITUTION", "ADDRESS": "110 MELALEUCA DRIVE", "CITY": "CRAWFORDVILLE", "STATE": "FL", "ZIP": "32327" }, "geometry": { "type": "Polygon", "coordinates": [ [ [ -84.173847427992811, 30.25865450831613 ], [ -84.17372936160983, 30.262774294540041 ], [ -84.18218563735671, 30.262956654944958 ], [ -84.182303351623574, 30.258836838751769 ], [ -84.173847427992811, 30.25865450831613 ] ] ] } },
{ "type": "Feature", "properties": { "FACILITYID": "10000395", "NAME": "COLUMBIA CORRECTIONAL INSTITUTION", "ADDRESS": "216 SE CORRECTIONS WAY", "CITY": "LAKE CITY", "STATE": "FL", "ZIP": "32025" }, "geometry": { "type": "Polygon", "coordinates": [ [ [ -82.496368076311327, 30.187782859214551 ], [ -82.496473672253401, 30.194765444438431 ], [ -82.504147945091901, 30.194677629396939 ], [ -82.504041808125109, 30.187695068665562 ], [ -82.496368076311327, 30.187782859214551 ] ] ] } },
{ "type": "Feature", "properties": { "FACILITYID": "10000396", "NAME": "COLUMBIA CORRECTIONAL INSTITUTION ANNEX", "ADDRESS": "216 SE CORRECTIONS WAY", "CITY": "LAKE CITY", "STATE": "FL", "ZIP": "32025" }, "geometry": { "type": "Polygon", "coordinates": [ [ [ -82.506124348758576, 30.18485318828272 ], [ -82.506211686988877, 30.190591901562168 ], [ -82.510706494277244, 30.190540193231257 ], [ -82.510618895655156, 30.184801491805807 ], [ -82.506124348758576, 30.18485318828272 ] ] ] } },
{ "type": "Feature", "properties": { "FACILITYID": "10000864", "NAME": "USP LOMPOC", "ADDRESS": "3901 KLEIN BLVD", "CITY": "LOMPOC", "STATE": "CA", "ZIP": "93436" }, "geometry": { "type": "Polygon", "coordinates": [ [ [ -120.502241667800931, 34.676483244017341 ], [ -120.502083235504941, 34.681756268374357 ], [ -120.508703237609154, 34.681891837012294 ], [ -120.508861251086685, 34.676618786149454 ], [ -120.502241667800931, 34.676483244017341 ] ] ] } },
{ "type": "Feature", "properties": { "FACILITYID": "10000432", "NAME": "CROSS CITY CORRECTIONAL INSTITUTION", "ADDRESS": "568 NE 255TH ST", "CITY": "CROSS CITY", "STATE": "FL", "ZIP": "32628" }, "geometry": { "type": "Polygon", "coordinates": [ [ [ -83.096276766576963, 29.631502144484514 ], [ -83.096426554721035, 29.638731792658252 ], [ -83.101731211313762, 29.638647796867769 ], [ -83.101581044835129, 29.631418173228191 ], [ -83.096276766576963, 29.631502144484514 ] ] ] } },
{ "type": "Feature", "properties": { "FACILITYID": "10004579", "NAME": "FLORIDA STATE PRISON - WEST UNIT", "ADDRESS": "7819 N.W. 228TH STREET", "CITY": "RAIFORD", "STATE": "FL", "ZIP": "32026" }, "geometry": { "type": "Polygon", "coordinates": [ [ [ -82.184303015983474, 30.054265285344325 ], [ -82.184360310956734, 30.05907876975402 ], [ -82.189337324908351, 30.059033842712822 ], [ -82.189279789303598, 30.054220366965009 ], [ -82.184303015983474, 30.054265285344325 ] ] ] } },
{ "type": "Feature", "properties": { "FACILITYID": "10005303", "NAME": "FCI DUBLIN", "ADDRESS": "5701 8TH STREET", "CITY": "DUBLIN", "STATE": "CA", "ZIP": "94568" }, "geometry": { "type": "Polygon", "coordinates": [ [ [ -121.893178661798956, 37.715731571339802 ], [ -121.893099784512017, 37.72103248005584 ], [ -121.900315257885154, 37.721100012481799 ], [ -121.900393621253571, 37.715799090937338 ], [ -121.893178661798956, 37.715731571339802 ] ] ] } }
]
}
